$GPGGA,183845.000,4158.4412,N,08754.0202,W,1,05,5.7,100.1,M,-34.1,M,,0000*64
$GPGSA,M,3,16,03,27,22,08,,,,,,,,7.7,5.7,5.2*32
$GPRMC,183845.000,A,4158.4412,N,08754.0202,W,0.00,338.49,291222,,,A*77
$GPGGA,183846.000,4158.4412,N,08754.0202,W,1,05,5.7,100.1,M,-34.1,M,,0000*67
$GPGSA,M,3,16,03,27,22,08,,,,,,,,7.7,5.7,5.2*32
$GPGSV,3,1,12,16,80,144,26,03,28,220,40,27,23,147,29,22,12,133,28*7A
$GPGSV,3,2,12,08,05,173,27,07,70,338,16,31,00,000,26,51,37,207,*7A
$GPGSV,3,3,12,14,42,311,,10,34,259,,29,21,059,,32,17,315,*76
$GPRMC,183846.000,A,4158.4412,N,08754.0202,W,0.00,338.49,291222,,,A*74
$GPGGA,183847.000,4158.4382,N,08754.0195,W,1,05,5.7,104.6,M,-34.1,M,,0000*66
$GPGSA,M,3,16,03,27,22,08,,,,,,,,7.7,5.7,5.2*32
$GPRMC,183847.000,A,4158.4382,N,08754.0195,W,0.16,338.49,291222,,,A*71
$GPGGA,183848.000,4158.4376,N,08754.0194,W,1,05,5.7,105.4,M,-34.1,M,,0000*60
$GPGSA,M,3,16,03,27,22,08,,,,,,,,7.7,5.7,5.2*32
$GPRMC,183848.000,A,4158.4376,N,08754.0194,W,0.17,338.49,291222,,,A*75
$GPGGA,183849.000,4158.4376,N,08754.0194,W,1,05,5.7,105.4,M,-34.1,M,,0000*61
$GPRMC,183849.000,A,4158.4376,N,08754.0194,W,0.20,338.49,291222,,,A*70
$GPGGA,183850.000,4158.4374,N,08754.0194,W,1,06,1.9,105.6,M,-34.1,M,,0000*60
$GPGSA,M,3,16,03,27,22,08,31,,,,,,,2.9,1.9,2.1*35
$GPRMC,183850.000,A,4158.4374,N,08754.0194,W,0.00,338.49,291222,,,A*78
$GPGGA,183851.000,4158.4373,N,08754.0193,W,1,06,1.9,105.8,M,-34.1,M,,0000*6F
$GPGSA,M,3,16,03,27,31,22,08,,,,,,,2.9,1.9,2.1*35
$GPGSV,3,1,12,16,80,143,26,03,27,220,41,27,23,147,18,31,18,080,27*7F
$GPGSV,3,2,12,22,12,133,19,08,05,173,27,07,70,338,16,51,37,207,*76
$GPGSV,3,3,12,14,42,311,,10,34,259,,29,21,059,,32,17,314,*77
$GPRMC,183851.000,A,4158.4373,N,08754.0193,W,0.00,338.49,291222,,,A*79
$GPGGA,183852.000,4158.4371,N,08754.0193,W,1,06,1.9,106.1,M,-34.1,M,,0000*64
$GPGSA,M,3,16,03,27,31,22,08,,,,,,,2.9,1.9,2.1*35
$GPRMC,183852.000,A,4158.4371,N,08754.0193,W,0.00,338.49,291222,,,A*78
$GPGGA,183853.000,4158.4369,N,08754.0193,W,1,06,1.9,106.3,M,-34.1,M,,0000*6E
$GPGSA,M,3,16,03,27,31,22,08,,,,,,,2.9,1.9,2.1*35
$GPRMC,183853.000,A,4158.4369,N,08754.0193,W,0.00,338.49,291222,,,A*70
$GPGGA,183854.000,4158.4364,N,08754.0192,W,1,06,1.9,107.1,M,-34.1,M,,0000*66
$GPGSA,M,3,16,03,27,31,22,08,,,,,,,2.9,1.9,2.1*35
$GPRMC,183854.000,A,4158.4364,N,08754.0192,W,0.00,338.49,291222,,,A*7B
$GPGGA,183855.000,4158.4358,N,08754.0191,W,1,06,1.9,108.0,M,-34.1,M,,0000*65
$GPGSA,M,3,16,03,27,31,22,08,,,,,,,2.9,1.9,2.1*35
$GPRMC,183855.000,A,4158.4358,N,08754.0191,W,0.00,338.49,291222,,,A*76
$GPGGA,183856.000,4158.4353,N,08754.0190,W,1,06,1.9,108.8,M,-34.1,M,,0000*64
$GPGSA,M,3,16,03,27,31,22,08,,,,,,,2.9,1.9,2.1*35
$GPGSV,3,1,12,16,80,143,26,03,27,220,40,27,23,147,19,31,18,080,28*70
$GPGSV,3,2,12,22,12,133,18,08,05,173,27,07,70,338,17,51,37,207,*76
$GPGSV,3,3,12,14,42,311,,10,34,259,,29,21,059,,32,17,314,*77
$GPRMC,183856.000,A,4158.4353,N,08754.0190,W,0.00,338.49,291222,,,A*7F
$GPGGA,183857.000,4158.4343,N,08754.0189,W,1,06,1.9,110.3,M,-34.1,M,,0000*6E
$GPGSA,M,3,16,03,27,31,22,08,,,,,,,2.9,1.9,2.1*35
$GPRMC,183857.000,A,4158.4343,N,08754.0189,W,0.00,338.49,291222,,,A*77
$GPGGA,183858.000,4158.4333,N,08754.0187,W,1,06,1.9,111.7,M,-34.1,M,,0000*6D
$GPGSA,M,3,16,03,27,31,22,08,,,,,,,2.9,1.9,2.1*35
$GPRMC,183858.000,A,4158.4333,N,08754.0187,W,0.00,338.49,291222,,,A*71
$GPGGA,183859.000,4158.4324,N,08754.0185,W,1,06,1.9,113.1,M,-34.1,M,,0000*6C
$GPGSA,M,3,16,03,27,31,22,08,,,,,,,2.9,1.9,2.1*35
$GPRMC,183859.000,A,4158.4324,N,08754.0185,W,0.00,338.49,291222,,,A*74
$GPGGA,183900.000,4158.4315,N,08754.0184,W,1,06,1.9,114.4,M,-34.1,M,,0000*60
$GPGSA,M,3,16,03,27,31,22,08,,,,,,,2.9,1.9,2.1*35
$GPRMC,183900.000,A,4158.4315,N,08754.0184,W,0.00,338.49,291222,,,A*7A
$GPGGA,183901.000,4158.4307,N,08754.0183,W,1,06,1.9,115.6,M,-34.1,M,,0000*66
$GPGSA,M,3,16,03,27,31,22,08,,,,,,,2.9,1.9,2.1*35
$GPGSV,3,1,12,16,80,143,26,03,27,220,40,27,23,147,18,31,18,080,29*70
$GPGSV,3,2,12,22,12,133,27,08,05,173,26,07,70,338,17,51,37,207,*7B
$GPGSV,3,3,12,14,42,311,,10,34,259,,29,21,059,,32,17,314,*77
$GPRMC,183901.000,A,4158.4307,N,08754.0183,W,0.00,338.49,291222,,,A*7F
$GPGGA,183902.000,4158.4299,N,08754.0181,W,1,06,1.9,116.8,M,-34.1,M,,0000*6C
$GPGSA,M,3,16,03,27,31,22,08,,,,,,,2.9,1.9,2.1*35
$GPRMC,183902.000,A,4158.4299,N,08754.0181,W,0.00,338.49,291222,,,A*78
$GPGGA,183903.000,4158.4290,N,08754.0180,W,1,06,1.9,118.1,M,-34.1,M,,0000*62
$GPGSA,M,3,16,03,27,31,22,08,,,,,,,2.9,1.9,2.1*35
$GPRMC,183903.000,A,4158.4290,N,08754.0180,W,0.00,338.49,291222,,,A*71
$GPGGA,183904.000,4158.4282,N,08754.0178,W,1,06,1.9,119.3,M,-34.1,M,,0000*62
$GPGSA,M,3,16,03,27,31,22,08,,,,,,,2.9,1.9,2.1*35
$GPRMC,183904.000,A,4158.4282,N,08754.0178,W,0.00,338.49,291222,,,A*72
$GPGGA,183905.000,4158.4274,N,08754.0177,W,1,06,1.9,120.5,M,-34.1,M,,0000*69
$GPGSA,M,3,16,03,27,31,22,08,,,,,,,2.9,1.9,2.1*35
$GPRMC,183905.000,A,4158.4274,N,08754.0177,W,0.00,338.49,291222,,,A*75
$GPGGA,183906.000,4158.4267,N,08754.0176,W,1,06,1.9,121.6,M,-34.1,M,,0000*6B
$GPGSA,M,3,16,03,27,31,22,08,,,,,,,2.9,1.9,2.1*35
$GPGSV,3,1,12,16,80,143,25,03,27,220,39,27,23,147,16,31,18,080,30*7B
$GPGSV,3,2,12,22,12,133,27,08,05,173,21,07,70,338,16,48,25,234,*76
$GPGSV,3,3,12,14,42,311,,10,34,259,,29,21,059,,32,17,314,*77
$GPRMC,183906.000,A,4158.4267,N,08754.0176,W,0.00,338.49,291222,,,A*75
$GPGGA,183907.000,4158.4260,N,08754.0175,W,1,06,1.9,122.7,M,-34.1,M,,0000*6C
$GPGSA,M,3,16,03,27,31,22,08,,,,,,,2.9,1.9,2.1*35
$GPRMC,183907.000,A,4158.4260,N,08754.0175,W,0.00,338.49,291222,,,A*70
$GPGGA,183908.000,4158.4252,N,08754.0173,W,1,06,1.9,123.8,M,-34.1,M,,0000*6A
$GPGSA,M,3,16,03,27,31,22,08,,,,,,,2.9,1.9,2.1*35
$GPRMC,183908.000,A,4158.4252,N,08754.0173,W,0.00,338.49,291222,,,A*78
$GPGGA,183909.000,4158.4245,N,08754.0172,W,1,06,1.9,124.8,M,-34.1,M,,0000*6B
$GPGSA,M,3,16,03,27,31,22,08,,,,,,,2.9,1.9,2.1*35
$GPRMC,183909.000,A,4158.4245,N,08754.0172,W,0.00,338.49,291222,,,A*7E
$GPGGA,183910.000,4158.4239,N,08754.0171,W,1,06,1.9,125.9,M,-34.1,M,,0000*6B
$GPGSA,M,3,16,03,27,31,22,08,,,,,,,2.9,1.9,2.1*35
$GPRMC,183910.000,A,4158.4239,N,08754.0171,W,0.00,338.49,291222,,,A*7E
$GPGGA,183911.000,4158.4232,N,08754.0170,W,1,06,1.9,126.9,M,-34.1,M,,0000*63
$GPGSA,M,3,16,03,27,31,22,08,,,,,,,2.9,1.9,2.1*35
$GPGSV,3,1,12,16,80,143,25,03,27,220,38,27,23,147,16,31,18,080,30*7A
$GPGSV,3,2,12,22,12,133,28,08,05,173,20,07,70,338,17,48,25,234,31*7B
$GPGSV,3,3,12,14,42,311,,10,34,259,,29,21,059,,32,17,314,*77
$GPRMC,183911.000,A,4158.4232,N,08754.0170,W,0.00,338.49,291222,,,A*75
$GPGGA,183912.000,4158.4225,N,08754.0169,W,1,06,1.9,127.9,M,-34.1,M,,0000*6F
$GPGSA,M,3,16,03,27,31,22,08,,,,,,,2.9,1.9,2.1*35
$GPRMC,183912.000,A,4158.4225,N,08754.0169,W,0.00,338.49,291222,,,A*78
$GPGGA,183913.000,4158.4219,N,08754.0168,W,1,06,1.9,128.8,M,-34.1,M,,0000*6E
$GPGSA,M,3,16,03,27,31,22,08,,,,,,,2.9,1.9,2.1*35
$GPRMC,183913.000,A,4158.4219,N,08754.0168,W,0.00,338.49,291222,,,A*77
$GPGGA,183914.000,4158.4212,N,08754.0167,W,1,06,1.9,129.8,M,-34.1,M,,0000*6C
$GPGSA,M,3,16,03,27,31,22,08,,,,,,,2.9,1.9,2.1*35
$GPRMC,183914.000,A,4158.4212,N,08754.0167,W,0.00,338.49,291222,,,A*74
$GPGGA,183915.000,4158.4206,N,08754.0166,W,1,06,1.9,130.7,M,-34.1,M,,0000*6E
$GPGSA,M,3,16,03,27,31,22,08,,,,,,,2.9,1.9,2.1*35
$GPRMC,183915.000,A,4158.4206,N,08754.0166,W,0.00,338.49,291222,,,A*71
$GPGGA,183916.000,4158.4200,N,08754.0164,W,1,06,1.9,131.7,M,-34.1,M,,0000*68
$GPGSA,M,3,16,03,27,31,22,08,,,,,,,2.9,1.9,2.1*35
$GPGSV,3,1,12,16,80,143,24,03,27,220,37,27,23,147,15,31,18,080,30*77
$GPGSV,3,2,12,22,12,133,29,08,05,173,11,07,70,338,18,48,25,234,30*76
$GPGSV,3,3,12,14,42,311,,10,34,259,,29,21,059,,32,17,314,*77
$GPRMC,183916.000,A,4158.4200,N,08754.0164,W,0.00,338.49,291222,,,A*76
$GPGGA,183917.000,4158.4194,N,08754.0163,W,1,06,1.9,132.6,M,-34.1,M,,0000*62
$GPGSA,M,3,16,03,27,31,22,08,,,,,,,2.9,1.9,2.1*35
$GPRMC,183917.000,A,4158.4194,N,08754.0163,W,0.00,338.49,291222,,,A*7E
$GPGGA,183918.000,4158.4188,N,08754.0162,W,1,06,1.9,133.4,M,-34.1,M,,0000*62
$GPGSA,M,3,16,03,27,31,22,08,,,,,,,2.9,1.9,2.1*35
$GPRMC,183918.000,A,4158.4188,N,08754.0162,W,0.00,338.49,291222,,,A*7D
$GPGGA,183919.000,4158.4183,N,08754.0162,W,1,06,1.9,134.1,M,-34.1,M,,0000*6A
$GPGSA,M,3,16,03,27,31,22,08,,,,,,,2.9,1.9,2.1*35
$GPRMC,183919.000,A,4158.4183,N,08754.0162,W,0.00,338.49,291222,,,A*77
$GPGGA,183920.000,4158.4178,N,08754.0161,W,1,06,1.9,134.9,M,-34.1,M,,0000*6F
$GPGSA,M,3,16,03,27,31,22,08,,,,,,,2.9,1.9,2.1*35
$GPRMC,183920.000,A,4158.4178,N,08754.0161,W,0.00,338.49,291222,,,A*7A
$GPGGA,183921.000,4158.4173,N,08754.0160,W,1,06,1.9,135.7,M,-34.1,M,,0000*6B
$GPGSA,M,3,16,03,27,31,22,08,,,,,,,2.9,1.9,2.1*35
$GPGSV,3,1,12,16,80,143,24,03,27,220,36,27,23,147,16,31,18,080,29*7D
$GPGSV,3,2,12,22,12,133,30,08,05,173,16,07,70,338,20,48,25,234,30*72
$GPGSV,3,3,12,14,42,311,,10,34,259,,29,21,059,,32,17,314,*77
$GPRMC,183921.000,A,4158.4173,N,08754.0160,W,0.00,338.49,291222,,,A*71
$GPGGA,183922.000,4158.4168,N,08754.0159,W,1,06,1.9,136.4,M,-34.1,M,,0000*68
$GPGSA,M,3,16,03,27,31,22,08,,,,,,,2.9,1.9,2.1*35
$GPRMC,183922.000,A,4158.4168,N,08754.0159,W,0.00,338.49,291222,,,A*72
$GPGGA,183923.000,4158.4163,N,08754.0158,W,1,06,1.9,137.2,M,-34.1,M,,0000*64
$GPGSA,M,3,16,03,27,31,22,08,,,,,,,2.9,1.9,2.1*35
$GPRMC,183923.000,A,4158.4163,N,08754.0158,W,0.00,338.49,291222,,,A*79
$GPGGA,183924.000,4158.4158,N,08754.0157,W,1,06,1.9,137.9,M,-34.1,M,,0000*6F
$GPGSA,M,3,16,03,27,31,22,08,,,,,,,2.9,1.9,2.1*35
$GPRMC,183924.000,A,4158.4158,N,08754.0157,W,0.00,338.49,291222,,,A*79
$GPGGA,183925.000,4158.4154,N,08754.0156,W,1,06,1.9,138.5,M,-34.1,M,,0000*60
$GPGSA,M,3,16,03,27,31,22,08,,,,,,,2.9,1.9,2.1*35
$GPRMC,183925.000,A,4158.4154,N,08754.0156,W,0.00,338.49,291222,,,A*75
$GPGGA,183926.000,4158.4149,N,08754.0156,W,1,06,1.9,139.2,M,-34.1,M,,0000*69
$GPGSA,M,3,16,03,27,31,22,08,,,,,,,2.9,1.9,2.1*35
$GPGSV,3,1,12,16,80,143,24,03,27,220,35,27,23,147,21,31,18,080,29*7A
$GPGSV,3,2,12,22,12,133,31,08,05,173,18,07,70,338,22,48,25,234,30*7F
$GPGSV,3,3,12,14,42,311,,10,34,259,,29,21,059,,32,17,314,*77
$GPRMC,183926.000,A,4158.4149,N,08754.0156,W,0.00,338.49,291222,,,A*7A
$GPGGA,183927.000,4158.4144,N,08754.0155,W,1,06,1.9,139.9,M,-34.1,M,,0000*6D
$GPGSA,M,3,16,03,27,31,22,08,,,,,,,2.9,1.9,2.1*35
$GPRMC,183927.000,A,4158.4144,N,08754.0155,W,0.00,338.49,291222,,,A*75
$GPGGA,183928.000,4158.4140,N,08754.0154,W,1,06,1.9,140.6,M,-34.1,M,,0000*66
$GPGSA,M,3,16,03,27,31,22,08,,,,,,,2.9,1.9,2.1*35
$GPRMC,183928.000,A,4158.4140,N,08754.0154,W,0.00,338.49,291222,,,A*7F
$GPGGA,183929.000,4158.4136,N,08754.0153,W,1,06,1.9,141.2,M,-34.1,M,,0000*64
$GPGSA,M,3,16,03,27,31,22,08,,,,,,,2.9,1.9,2.1*35
$GPRMC,183929.000,A,4158.4136,N,08754.0153,W,0.00,338.49,291222,,,A*78
$GPGGA,183930.000,4158.4131,N,08754.0153,W,1,06,1.9,141.9,M,-34.1,M,,0000*60
$GPGSA,M,3,16,03,27,31,22,08,,,,,,,2.9,1.9,2.1*35
$GPRMC,183930.000,A,4158.4131,N,08754.0153,W,0.00,338.49,291222,,,A*77
$GPGGA,183931.000,4158.4127,N,08754.0152,W,1,06,1.9,142.5,M,-34.1,M,,0000*68
$GPGSA,M,3,16,03,27,31,22,08,,,,,,,2.9,1.9,2.1*35
$GPGSV,3,1,12,16,80,143,23,03,27,220,35,27,23,147,19,31,18,080,29*76
$GPGSV,3,2,12,22,12,133,32,08,05,173,25,07,70,338,23,48,25,234,30*73
$GPGSV,3,3,12,14,42,311,,10,34,259,,29,21,059,,32,17,314,*77
$GPRMC,183931.000,A,4158.4127,N,08754.0152,W,0.00,338.49,291222,,,A*70
$GPGGA,183932.000,4158.4123,N,08754.0151,W,1,06,1.9,143.2,M,-34.1,M,,0000*6A
$GPGSA,M,3,16,03,27,31,22,08,,,,,,,2.9,1.9,2.1*35
$GPRMC,183932.000,A,4158.4123,N,08754.0151,W,0.00,338.49,291222,,,A*74
$GPGGA,183933.000,4158.4118,N,08754.0150,W,1,06,1.9,143.8,M,-34.1,M,,0000*68
$GPGSA,M,3,16,03,27,31,22,08,,,,,,,2.9,1.9,2.1*35
$GPRMC,183933.000,A,4158.4118,N,08754.0150,W,0.00,338.49,291222,,,A*7C
$GPGGA,183934.000,4158.4114,N,08754.0150,W,1,06,1.9,144.4,M,-34.1,M,,0000*68
$GPGSA,M,3,16,03,27,31,22,08,,,,,,,2.9,1.9,2.1*35
$GPRMC,183934.000,A,4158.4114,N,08754.0150,W,0.00,338.49,291222,,,A*77
$GPGGA,183935.000,4158.4110,N,08754.0149,W,1,06,1.9,145.0,M,-34.1,M,,0000*60
$GPGSA,M,3,16,03,27,31,22,08,,,,,,,2.9,1.9,2.1*35
$GPRMC,183935.000,A,4158.4110,N,08754.0149,W,0.00,338.49,291222,,,A*7A
$GPGGA,183936.000,4158.4106,N,08754.0148,W,1,06,1.9,145.6,M,-34.1,M,,0000*63
$GPGSA,M,3,16,03,27,31,22,08,,,,,,,2.9,1.9,2.1*35
$GPGSV,3,1,12,16,80,143,22,03,27,220,35,27,23,147,20,31,18,080,29*7D
$GPGSV,3,2,12,22,12,133,33,08,05,173,26,07,70,338,23,33,04,101,*78
$GPGSV,3,3,12,14,42,311,,10,34,259,,29,21,059,,32,17,314,*77
$GPRMC,183936.000,A,4158.4106,N,08754.0148,W,0.00,338.49,291222,,,A*7F
$GPGGA,183937.000,4158.4103,N,08754.0148,W,1,06,1.9,146.2,M,-34.1,M,,0000*60
$GPGSA,M,3,16,03,27,31,22,08,,,,,,,2.9,1.9,2.1*35
$GPRMC,183937.000,A,4158.4103,N,08754.0148,W,0.00,338.49,291222,,,A*7B
$GPGGA,183938.000,4158.4099,N,08754.0147,W,1,06,1.9,146.7,M,-34.1,M,,0000*67
$GPGSA,M,3,16,03,27,31,22,08,,,,,,,2.9,1.9,2.1*35
$GPRMC,183938.000,A,4158.4099,N,08754.0147,W,0.00,338.49,291222,,,A*79
$GPGGA,183939.000,4158.4097,N,08754.0147,W,1,06,1.9,147.0,M,-34.1,M,,0000*6E
$GPGSA,M,3,16,03,27,31,22,08,,,,,,,2.9,1.9,2.1*35
$GPRMC,183939.000,A,4158.4097,N,08754.0147,W,0.00,338.49,291222,,,A*76
$GPGGA,183940.000,4158.4095,N,08754.0146,W,1,06,1.9,147.3,M,-34.1,M,,0000*60
$GPGSA,M,3,16,03,27,31,22,08,,,,,,,2.9,1.9,2.1*35
$GPRMC,183940.000,A,4158.4095,N,08754.0146,W,0.00,338.49,291222,,,A*7B
$GPGGA,183941.000,4158.4093,N,08754.0146,W,1,06,1.9,147.6,M,-34.1,M,,0000*62
$GPGSA,M,3,16,03,27,31,22,08,,,,,,,2.9,1.9,2.1*35
$GPGSV,3,1,12,16,80,143,22,03,27,220,34,27,23,147,20,31,18,080,28*7D
$GPGSV,3,2,12,22,12,133,34,08,05,173,27,07,70,338,23,33,04,101,*7E
$GPGSV,3,3,12,14,42,311,,10,34,259,,29,21,059,,32,17,314,*77
$GPRMC,183941.000,A,4158.4093,N,08754.0146,W,0.00,338.49,291222,,,A*7C
$GPGGA,183942.000,4158.4090,N,08754.0145,W,1,06,1.9,147.9,M,-34.1,M,,0000*6E
$GPGSA,M,3,16,03,27,31,22,08,,,,,,,2.9,1.9,2.1*35
$GPRMC,183942.000,A,4158.4090,N,08754.0145,W,0.00,338.49,291222,,,A*7F
$GPGGA,183943.000,4158.4090,N,08754.0145,W,1,06,1.9,148.1,M,-34.1,M,,0000*68
$GPGSA,M,3,16,03,27,31,22,08,,,,,,,2.9,1.9,2.1*35
$GPRMC,183943.000,A,4158.4090,N,08754.0145,W,0.00,338.49,291222,,,A*7E
$GPGGA,183944.000,4158.4089,N,08754.0145,W,1,06,1.9,148.2,M,-34.1,M,,0000*64
$GPGSA,M,3,16,03,27,31,22,08,,,,,,,2.9,1.9,2.1*35
$GPRMC,183944.000,A,4158.4089,N,08754.0145,W,0.00,338.49,291222,,,A*71
$GPGGA,183945.000,4158.4088,N,08754.0145,W,1,06,1.9,148.3,M,-34.1,M,,0000*65
$GPGSA,M,3,16,03,27,31,22,08,,,,,,,2.9,1.9,2.1*35
$GPRMC,183945.000,A,4158.4088,N,08754.0145,W,0.00,338.49,291222,,,A*71
$GPGGA,183946.000,4158.4088,N,08754.0145,W,1,06,1.9,148.3,M,-34.1,M,,0000*66
$GPGSA,M,3,16,03,27,31,22,08,,,,,,,2.9,1.9,2.1*35
$GPGSV,3,1,12,16,80,143,23,03,27,220,35,27,23,147,22,31,18,080,24*73
$GPGSV,3,2,12,22,12,133,34,08,05,173,27,07,70,338,22,33,04,101,*7F
$GPGSV,3,3,12,14,42,311,,10,34,259,,29,21,059,,32,17,314,*77
$GPRMC,183946.000,A,4158.4088,N,08754.0145,W,0.00,338.49,291222,,,A*72
$GPGGA,183947.000,4158.4087,N,08754.0145,W,1,06,1.9,148.4,M,-34.1,M,,0000*6F
$GPGSA,M,3,16,03,27,31,22,08,,,,,,,2.9,1.9,2.1*35
$GPRMC,183947.000,A,4158.4087,N,08754.0145,W,0.00,338.49,291222,,,A*7C
$GPGGA,183948.000,4158.4087,N,08754.0145,W,1,06,1.9,148.5,M,-34.1,M,,0000*61
$GPGSA,M,3,16,03,27,31,22,08,,,,,,,2.9,1.9,2.1*35
$GPRMC,183948.000,A,4158.4087,N,08754.0145,W,0.00,338.49,291222,,,A*73
$GPGGA,183949.000,4158.4087,N,08754.0145,W,1,06,1.9,148.5,M,-34.1,M,,0000*60
$GPGSA,M,3,16,03,27,31,22,08,,,,,,,2.9,1.9,2.1*35
$GPRMC,183949.000,A,4158.4087,N,08754.0145,W,0.00,338.49,291222,,,A*72
$GPGGA,183950.000,4158.4086,N,08754.0144,W,1,06,1.9,148.6,M,-34.1,M,,0000*6B
$GPGSA,M,3,16,03,27,31,22,08,,,,,,,2.9,1.9,2.1*35
$GPRMC,183950.000,A,4158.4086,N,08754.0144,W,0.00,338.49,291222,,,A*7A
$GPGGA,183951.000,4158.4086,N,08754.0144,W,1,06,1.9,148.7,M,-34.1,M,,0000*6B
$GPGSA,M,3,16,03,27,31,22,08,,,,,,,2.9,1.9,2.1*35
$GPGSV,3,1,12,16,80,143,22,03,27,220,35,27,23,147,23,31,18,080,24*73
$GPGSV,3,2,12,22,12,133,35,08,05,173,27,07,70,338,15,33,04,101,*7A
$GPGSV,3,3,12,14,42,311,,10,34,259,,29,21,059,,32,17,314,*77
$GPRMC,183951.000,A,4158.4086,N,08754.0144,W,0.00,338.49,291222,,,A*7B
$GPGGA,183952.000,4158.4085,N,08754.0144,W,1,06,1.9,148.7,M,-34.1,M,,0000*6B
$GPGSA,M,3,16,03,27,31,22,08,,,,,,,2.9,1.9,2.1*35
$GPRMC,183952.000,A,4158.4085,N,08754.0144,W,0.00,338.49,291222,,,A*7B
$GPGGA,183953.000,4158.4085,N,08754.0144,W,1,06,1.9,148.8,M,-34.1,M,,0000*65
$GPGSA,M,3,16,03,27,31,22,08,,,,,,,2.9,1.9,2.1*35
$GPRMC,183953.000,A,4158.4085,N,08754.0144,W,0.00,338.49,291222,,,A*7A
$GPGGA,183954.000,4158.4085,N,08754.0144,W,1,06,1.9,148.8,M,-34.1,M,,0000*62
$GPGSA,M,3,16,03,27,31,22,08,,,,,,,2.9,1.9,2.1*35
$GPRMC,183954.000,A,4158.4085,N,08754.0144,W,0.00,338.49,291222,,,A*7D
$GPGGA,183955.000,4158.4084,N,08754.0144,W,1,06,1.9,148.8,M,-34.1,M,,0000*62
$GPGSA,M,3,16,03,27,31,22,08,,,,,,,2.9,1.9,2.1*35
$GPRMC,183955.000,A,4158.4084,N,08754.0144,W,0.00,338.49,291222,,,A*7D
$GPGGA,183956.000,4158.4084,N,08754.0144,W,1,06,1.9,148.9,M,-34.1,M,,0000*60
$GPGSA,M,3,16,03,27,31,22,08,,,,,,,2.9,1.9,2.1*35
$GPGSV,3,1,12,16,80,143,22,03,27,220,36,27,23,147,25,31,18,080,24*76
$GPGSV,3,2,12,22,12,133,35,08,05,173,27,07,70,338,18,33,04,101,*77
$GPGSV,3,3,12,14,42,311,,10,34,259,,29,21,059,,32,17,314,*77
$GPRMC,183956.000,A,4158.4084,N,08754.0144,W,0.00,338.49,291222,,,A*7E
$GPGGA,183957.000,4158.4084,N,08754.0144,W,1,06,1.9,148.9,M,-34.1,M,,0000*61
$GPGSA,M,3,16,03,27,31,22,08,,,,,,,2.9,1.9,2.1*35
$GPRMC,183957.000,A,4158.4084,N,08754.0144,W,0.00,338.49,291222,,,A*7F
$GPGGA,183958.000,4158.4083,N,08754.0144,W,1,06,1.9,149.0,M,-34.1,M,,0000*61
$GPGSA,M,3,16,03,27,31,22,08,,,,,,,2.9,1.9,2.1*35
$GPRMC,183958.000,A,4158.4083,N,08754.0144,W,0.00,338.49,291222,,,A*77
$GPGGA,183959.000,4158.4083,N,08754.0144,W,1,06,1.9,149.0,M,-34.1,M,,0000*60
$GPGSA,M,3,16,03,27,31,22,08,,,,,,,2.9,1.9,2.1*35
$GPRMC,183959.000,A,4158.4083,N,08754.0144,W,0.00,338.49,291222,,,A*76
$GPGGA,184000.000,4158.4083,N,08754.0144,W,1,06,1.9,149.0,M,-34.1,M,,0000*62
$GPGSA,M,3,16,03,27,31,22,08,,,,,,,2.9,1.9,2.1*35
$GPRMC,184000.000,A,4158.4083,N,08754.0144,W,0.00,338.49,291222,,,A*74
$GPGGA,184001.000,4158.4083,N,08754.0144,W,1,06,1.9,149.1,M,-34.1,M,,0000*62
$GPGSA,M,3,16,03,27,31,22,08,,,,,,,2.9,1.9,2.1*35
$GPGSV,3,1,12,16,80,143,22,03,27,220,37,27,23,147,22,31,18,080,23*77
$GPGSV,3,2,12,22,12,133,35,08,05,173,31,07,70,338,20,33,04,101,*7B
$GPGSV,3,3,12,14,42,311,,10,34,259,,29,21,059,,32,17,314,*77
$GPRMC,184001.000,A,4158.4083,N,08754.0144,W,0.00,338.49,291222,,,A*75
$GPGGA,184002.000,4158.4082,N,08754.0144,W,1,06,1.9,149.2,M,-34.1,M,,0000*63
$GPGSA,M,3,16,03,27,31,22,08,,,,,,,2.9,1.9,2.1*35
$GPRMC,184002.000,A,4158.4082,N,08754.0144,W,0.00,338.49,291222,,,A*77
$GPGGA,184003.000,4158.4082,N,08754.0143,W,1,06,1.9,149.3,M,-34.1,M,,0000*64
$GPGSA,M,3,16,03,27,31,22,08,,,,,,,2.9,1.9,2.1*35
$GPRMC,184003.000,A,4158.4082,N,08754.0143,W,0.00,338.49,291222,,,A*71
$GPGGA,184004.000,4158.4081,N,08754.0143,W,1,06,1.9,149.3,M,-34.1,M,,0000*60
$GPGSA,M,3,16,03,27,31,22,08,,,,,,,2.9,1.9,2.1*35
$GPRMC,184004.000,A,4158.4081,N,08754.0143,W,0.00,338.49,291222,,,A*75
$GPGGA,184005.000,4158.4081,N,08754.0143,W,1,06,1.9,149.4,M,-34.1,M,,0000*66
$GPGSA,M,3,16,03,27,31,22,08,,,,,,,2.9,1.9,2.1*35
$GPRMC,184005.000,A,4158.4081,N,08754.0143,W,0.00,338.49,291222,,,A*74
$GPGGA,184006.000,4158.4080,N,08754.0143,W,1,06,1.9,149.4,M,-34.1,M,,0000*64
$GPGSA,M,3,16,03,27,31,22,08,,,,,,,2.9,1.9,2.1*35
$GPGSV,3,1,12,16,80,143,22,03,27,220,38,27,23,147,22,31,18,080,23*78
$GPGSV,3,2,12,22,12,133,34,08,05,173,31,07,70,338,21,51,37,207,*7A
$GPGSV,3,3,12,14,42,311,,10,34,259,,29,21,059,,32,17,314,*77
$GPRMC,184006.000,A,4158.4080,N,08754.0143,W,0.00,338.49,291222,,,A*76
$GPGGA,184007.000,4158.4080,N,08754.0143,W,1,06,1.9,149.5,M,-34.1,M,,0000*64
$GPGSA,M,3,16,03,27,31,22,08,,,,,,,2.9,1.9,2.1*35
$GPRMC,184007.000,A,4158.4080,N,08754.0143,W,0.00,338.49,291222,,,A*77
$GPGGA,184008.000,4158.4079,N,08754.0143,W,1,06,1.9,149.6,M,-34.1,M,,0000*6E
$GPGSA,M,3,16,03,27,31,22,08,,,,,,,2.9,1.9,2.1*35
$GPRMC,184008.000,A,4158.4079,N,08754.0143,W,0.00,338.49,291222,,,A*7E
$GPGGA,184009.000,4158.4079,N,08754.0143,W,1,06,1.9,149.6,M,-34.1,M,,0000*6F
$GPGSA,M,3,16,03,27,31,22,08,,,,,,,2.9,1.9,2.1*35
$GPRMC,184009.000,A,4158.4079,N,08754.0143,W,0.00,338.49,291222,,,A*7F
$GPGGA,184010.000,4158.4079,N,08754.0143,W,1,06,1.9,149.7,M,-34.1,M,,0000*66
$GPGSA,M,3,16,03,27,31,22,08,,,,,,,2.9,1.9,2.1*35
$GPRMC,184010.000,A,4158.4079,N,08754.0143,W,0.00,338.49,291222,,,A*77
$GPGGA,184011.000,4158.4078,N,08754.0143,W,1,06,1.9,149.7,M,-34.1,M,,0000*66
$GPGSA,M,3,16,03,27,31,22,08,,,,,,,2.9,1.9,2.1*35
$GPGSV,3,1,12,16,80,143,22,03,27,220,38,27,23,147,27,31,18,080,23*7D
$GPGSV,3,2,12,22,12,133,33,08,05,173,29,07,70,338,22,51,37,207,*77
$GPGSV,3,3,12,14,42,311,,10,34,259,,29,21,059,,32,17,314,*77
$GPRMC,184011.000,A,4158.4078,N,08754.0143,W,0.00,338.49,291222,,,A*77
$GPGGA,184012.000,4158.4078,N,08754.0143,W,1,06,1.9,149.7,M,-34.1,M,,0000*65
$GPGSA,M,3,16,03,27,31,22,08,,,,,,,2.9,1.9,2.1*35
$GPRMC,184012.000,A,4158.4078,N,08754.0143,W,0.00,338.49,291222,,,A*74
$GPGGA,184013.000,4158.4078,N,08754.0143,W,1,06,1.9,149.7,M,-34.1,M,,0000*64
$GPGSA,M,3,16,03,27,31,22,08,,,,,,,2.9,1.9,2.1*35
$GPRMC,184013.000,A,4158.4078,N,08754.0143,W,0.00,338.49,291222,,,A*75
$GPGGA,184014.000,4158.4078,N,08754.0143,W,1,06,1.9,149.7,M,-34.1,M,,0000*63
$GPGSA,M,3,16,03,27,31,22,08,,,,,,,2.9,1.9,2.1*35
$GPRMC,184014.000,A,4158.4078,N,08754.0143,W,0.00,338.49,291222,,,A*72
$GPGGA,184015.000,4158.4078,N,08754.0143,W,1,06,1.9,149.8,M,-34.1,M,,0000*6D
$GPGSA,M,3,16,03,27,31,22,08,,,,,,,2.9,1.9,2.1*35
$GPRMC,184015.000,A,4158.4078,N,08754.0143,W,0.00,338.49,291222,,,A*73
$GPGGA,184016.000,4158.4078,N,08754.0143,W,1,05,2.0,149.8,M,-34.1,M,,0000*67
$GPGSA,M,3,03,27,31,22,08,,,,,,,,4.7,2.0,4.2*35
$GPGSV,3,1,12,03,27,220,37,27,23,147,25,31,18,080,13,22,12,133,33*78
$GPGSV,3,2,12,08,05,173,28,07,70,338,23,51,37,207,,16,80,143,*7C
$GPGSV,3,3,12,14,42,311,,10,34,259,,29,21,059,,32,17,314,*77
$GPRMC,184016.000,A,4158.4078,N,08754.0143,W,0.00,338.49,291222,,,A*70
$GPGGA,184017.000,4158.4078,N,08754.0143,W,1,05,2.0,149.8,M,-34.1,M,,0000*66
$GPGSA,M,3,03,27,31,22,08,,,,,,,,4.7,2.0,4.2*35
$GPRMC,184017.000,A,4158.4078,N,08754.0143,W,0.00,338.49,291222,,,A*71
$GPGGA,184018.000,4158.4077,N,08754.0143,W,1,06,1.9,149.9,M,-34.1,M,,0000*6E
$GPGSA,M,3,16,03,27,31,22,08,,,,,,,2.9,1.9,2.1*35
$GPRMC,184018.000,A,4158.4077,N,08754.0143,W,0.00,338.49,291222,,,A*71
$GPGGA,184019.000,4158.4077,N,08754.0143,W,1,06,1.9,149.9,M,-34.1,M,,0000*6F
$GPGSA,M,3,16,03,27,31,22,08,,,,,,,2.9,1.9,2.1*35
$GPRMC,184019.000,A,4158.4077,N,08754.0143,W,0.00,338.49,291222,,,A*70
$GPGGA,184020.000,4158.4077,N,08754.0142,W,1,06,1.9,149.9,M,-34.1,M,,0000*64
$GPGSA,M,3,16,03,27,31,22,08,,,,,,,2.9,1.9,2.1*35
$GPRMC,184020.000,A,4158.4077,N,08754.0142,W,0.00,338.49,291222,,,A*7B
$GPGGA,184021.000,4158.4077,N,08754.0142,W,1,06,1.9,149.9,M,-34.1,M,,0000*65
$GPGSA,M,3,16,03,27,31,22,08,,,,,,,2.9,1.9,2.1*35
$GPGSV,3,1,12,16,80,143,27,03,27,220,37,27,23,147,25,31,18,080,13*76
$GPGSV,3,2,12,22,12,133,29,08,05,173,28,07,70,338,23,51,37,207,*7C
$GPGSV,3,3,12,14,42,311,,10,34,259,,29,21,059,,32,17,314,*77
$GPRMC,184021.000,A,4158.4077,N,08754.0142,W,0.00,338.49,291222,,,A*7A
$GPGGA,184022.000,4158.4077,N,08754.0142,W,1,06,1.9,149.9,M,-34.1,M,,0000*66
$GPGSA,M,3,16,03,27,31,22,08,,,,,,,2.9,1.9,2.1*35
$GPRMC,184022.000,A,4158.4077,N,08754.0142,W,0.00,338.49,291222,,,A*79
$GPGGA,184023.000,4158.4077,N,08754.0142,W,1,06,1.9,149.9,M,-34.1,M,,0000*67
$GPGSA,M,3,16,03,27,31,22,08,,,,,,,2.9,1.9,2.1*35
$GPRMC,184023.000,A,4158.4077,N,08754.0142,W,0.00,338.49,291222,,,A*78
$GPGGA,184024.000,4158.4077,N,08754.0142,W,1,06,1.9,150.0,M,-34.1,M,,0000*61
$GPGSA,M,3,16,03,27,31,22,08,,,,,,,2.9,1.9,2.1*35
$GPRMC,184024.000,A,4158.4077,N,08754.0142,W,0.00,338.49,291222,,,A*7F
$GPGGA,184025.000,4158.4077,N,08754.0142,W,1,06,1.9,150.0,M,-34.1,M,,0000*60
$GPGSA,M,3,16,03,27,31,22,08,,,,,,,2.9,1.9,2.1*35
$GPRMC,184025.000,A,4158.4077,N,08754.0142,W,0.00,338.49,291222,,,A*7E
$GPGGA,184026.000,4158.4077,N,08754.0142,W,1,06,1.9,150.0,M,-34.1,M,,0000*63
$GPGSA,M,3,16,03,27,31,22,08,,,,,,,2.9,1.9,2.1*35
$GPGSV,3,1,12,16,80,143,28,03,27,220,38,27,23,147,25,31,18,080,12*77
$GPGSV,3,2,12,22,12,133,30,08,05,173,28,07,70,338,24,51,37,207,*73
$GPGSV,3,3,12,14,42,311,,10,34,259,,29,21,059,,32,17,314,*77
$GPRMC,184026.000,A,4158.4077,N,08754.0142,W,0.00,338.49,291222,,,A*7D
$GPGGA,184027.000,4158.4077,N,08754.0142,W,1,05,5.5,150.0,M,-34.1,M,,0000*69
$GPGSA,M,3,16,03,27,22,08,,,,,,,,7.5,5.5,5.1*31
$GPRMC,184027.000,A,4158.4077,N,08754.0142,W,0.00,338.49,291222,,,A*7C
$GPGGA,184028.000,4158.4076,N,08754.0142,W,1,06,1.9,150.0,M,-34.1,M,,0000*6C
$GPGSA,M,3,16,03,27,31,22,08,,,,,,,2.9,1.9,2.1*35
$GPRMC,184028.000,A,4158.4076,N,08754.0142,W,0.00,338.49,291222,,,A*72
$GPGGA,184029.000,4158.4076,N,08754.0142,W,1,05,5.5,150.0,M,-34.1,M,,0000*66
$GPGSA,M,3,16,03,27,22,08,,,,,,,,7.5,5.5,5.1*31
$GPRMC,184029.000,A,4158.4076,N,08754.0142,W,0.00,338.49,291222,,,A*73
$GPGGA,184030.000,4158.4076,N,08754.0142,W,1,06,1.9,150.0,M,-34.1,M,,0000*65
$GPGSA,M,3,16,03,27,31,22,08,,,,,,,2.9,1.9,2.1*35
$GPRMC,184030.000,A,4158.4076,N,08754.0142,W,0.00,338.49,291222,,,A*7B
$GPGGA,184031.000,4158.4076,N,08754.0142,W,1,05,5.5,150.0,M,-34.1,M,,0000*6F
$GPGSA,M,3,16,03,27,22,08,,,,,,,,7.5,5.5,5.1*31
$GPGSV,3,1,12,16,80,143,28,03,27,220,39,27,23,147,30,22,12,133,30*73
$GPGSV,3,2,12,08,05,173,27,07,70,338,25,31,18,080,12,51,37,207,*7C
$GPGSV,3,3,12,14,42,311,,10,34,259,,29,21,059,,32,17,314,*77
$GPRMC,184031.000,A,4158.4076,N,08754.0142,W,0.00,338.49,291222,,,A*7A
$GPGGA,184032.000,4158.4076,N,08754.0142,W,1,06,1.9,150.1,M,-34.1,M,,0000*66
$GPGSA,M,3,16,03,27,31,22,08,,,,,,,2.9,1.9,2.1*35
$GPRMC,184032.000,A,4158.4076,N,08754.0142,W,0.00,338.49,291222,,,A*79
$GPGGA,184033.000,4158.4076,N,08754.0142,W,1,06,1.9,150.1,M,-34.1,M,,0000*67
$GPGSA,M,3,16,03,27,31,22,08,,,,,,,2.9,1.9,2.1*35
$GPRMC,184033.000,A,4158.4076,N,08754.0142,W,0.00,338.49,291222,,,A*78
$GPGGA,184034.000,4158.4076,N,08754.0142,W,1,06,1.9,150.1,M,-34.1,M,,0000*60
$GPGSA,M,3,16,03,27,31,22,08,,,,,,,2.9,1.9,2.1*35
$GPRMC,184034.000,A,4158.4076,N,08754.0142,W,0.00,338.49,291222,,,A*7F
$GPGGA,184035.000,4158.4075,N,08754.0142,W,1,06,1.9,150.2,M,-34.1,M,,0000*61
$GPGSA,M,3,16,03,27,31,22,08,,,,,,,2.9,1.9,2.1*35
$GPRMC,184035.000,A,4158.4075,N,08754.0142,W,0.00,338.49,291222,,,A*7D
$GPGGA,184036.000,4158.4075,N,08754.0142,W,1,06,1.9,150.2,M,-34.1,M,,0000*62
$GPGSA,M,3,16,03,27,31,22,08,,,,,,,2.9,1.9,2.1*35
$GPGSV,3,1,12,16,80,143,28,03,27,220,39,27,23,147,31,31,18,080,15*74
$GPGSV,3,2,12,22,12,133,27,08,05,173,27,07,70,338,24,51,37,207,*7A
$GPGSV,3,3,12,14,42,311,,10,34,259,,29,21,059,,32,17,314,*77
$GPRMC,184036.000,A,4158.4075,N,08754.0142,W,0.00,338.49,291222,,,A*7E
$GPGGA,184037.000,4158.4075,N,08754.0142,W,1,06,1.9,150.3,M,-34.1,M,,0000*62
$GPGSA,M,3,16,03,27,31,22,08,,,,,,,2.9,1.9,2.1*35
$GPRMC,184037.000,A,4158.4075,N,08754.0142,W,0.00,338.49,291222,,,A*7F
$GPGGA,184038.000,4158.4074,N,08754.0142,W,1,06,1.9,150.3,M,-34.1,M,,0000*6C
$GPGSA,M,3,16,03,27,31,22,08,,,,,,,2.9,1.9,2.1*35
$GPRMC,184038.000,A,4158.4074,N,08754.0142,W,0.00,338.49,291222,,,A*71
$GPGGA,184039.000,4158.4074,N,08754.0142,W,1,06,1.9,150.4,M,-34.1,M,,0000*6A
$GPGSA,M,3,16,03,27,31,22,08,,,,,,,2.9,1.9,2.1*35
$GPRMC,184039.000,A,4158.4074,N,08754.0142,W,0.00,338.49,291222,,,A*70
$GPGGA,184040.000,4158.4074,N,08754.0142,W,1,06,1.9,150.4,M,-34.1,M,,0000*64
$GPGSA,M,3,16,03,27,31,22,08,,,,,,,2.9,1.9,2.1*35
$GPRMC,184040.000,A,4158.4074,N,08754.0142,W,0.00,338.49,291222,,,A*7E
$GPGGA,184041.000,4158.4073,N,08754.0142,W,1,06,1.9,150.5,M,-34.1,M,,0000*63
$GPGSA,M,3,16,03,27,31,22,08,,,,,,,2.9,1.9,2.1*35
$GPGSV,3,1,12,16,80,143,28,03,27,220,40,27,23,147,25,31,18,080,23*7A
$GPGSV,3,2,12,22,12,133,28,08,05,173,28,07,70,338,25,51,37,207,*7B
$GPGSV,3,3,12,14,42,311,,10,34,259,,29,21,059,,32,17,314,*77
$GPRMC,184041.000,A,4158.4073,N,08754.0142,W,0.00,338.49,291222,,,A*78
$GPGGA,184042.000,4158.4073,N,08754.0142,W,1,06,1.9,150.5,M,-34.1,M,,0000*60
$GPGSA,M,3,16,03,27,31,22,08,,,,,,,2.9,1.9,2.1*35
$GPRMC,184042.000,A,4158.4073,N,08754.0142,W,0.00,338.49,291222,,,A*7B
$GPGGA,184043.000,4158.4072,N,08754.0141,W,1,06,1.9,150.6,M,-34.1,M,,0000*60
$GPGSA,M,3,16,03,27,31,22,08,,,,,,,2.9,1.9,2.1*35
$GPRMC,184043.000,A,4158.4072,N,08754.0141,W,0.00,338.49,291222,,,A*78
$GPGGA,184044.000,4158.4072,N,08754.0141,W,1,06,1.9,150.7,M,-34.1,M,,0000*66
$GPGSA,M,3,16,03,27,31,22,08,,,,,,,2.9,1.9,2.1*35
$GPRMC,184044.000,A,4158.4072,N,08754.0141,W,0.00,338.49,291222,,,A*7F
$GPGGA,184045.000,4158.4071,N,08754.0141,W,1,06,1.9,150.8,M,-34.1,M,,0000*6B
$GPGSA,M,3,16,03,27,31,22,08,,,,,,,2.9,1.9,2.1*35
$GPRMC,184045.000,A,4158.4071,N,08754.0141,W,0.00,338.49,291222,,,A*7D
$GPGGA,184046.000,4158.4071,N,08754.0141,W,1,06,1.9,150.9,M,-34.1,M,,0000*69
$GPGSA,M,3,16,03,27,31,22,08,,,,,,,2.9,1.9,2.1*35
$GPGSV,3,1,12,16,80,143,29,03,27,220,40,27,23,147,27,31,18,080,24*7E
$GPGSV,3,2,12,22,12,133,29,08,05,173,28,07,70,338,25,51,37,207,*7A
$GPGSV,3,3,12,14,42,311,,10,34,259,,29,21,059,,32,17,314,*77
$GPRMC,184046.000,A,4158.4071,N,08754.0141,W,0.00,338.49,291222,,,A*7E
$GPGGA,184047.000,4158.4070,N,08754.0141,W,1,06,1.9,151.0,M,-34.1,M,,0000*61
$GPGSA,M,3,16,03,27,31,22,08,,,,,,,2.9,1.9,2.1*35
$GPRMC,184047.000,A,4158.4070,N,08754.0141,W,0.00,338.49,291222,,,A*7E
$GPGGA,184048.000,4158.4070,N,08754.0141,W,1,06,1.9,151.0,M,-34.1,M,,0000*6E
$GPGSA,M,3,16,03,27,31,22,08,,,,,,,2.9,1.9,2.1*35
$GPRMC,184048.000,A,4158.4070,N,08754.0141,W,0.00,338.49,291222,,,A*71
$GPGGA,184049.000,4158.4069,N,08754.0141,W,1,06,1.9,151.1,M,-34.1,M,,0000*66
$GPGSA,M,3,16,03,27,31,22,08,,,,,,,2.9,1.9,2.1*35
$GPRMC,184049.000,A,4158.4069,N,08754.0141,W,0.00,338.49,291222,,,A*78
$GPGGA,184050.000,4158.4069,N,08754.0141,W,1,06,1.9,151.2,M,-34.1,M,,0000*6D
$GPGSA,M,3,16,03,27,31,22,08,,,,,,,2.9,1.9,2.1*35
$GPRMC,184050.000,A,4158.4069,N,08754.0141,W,0.00,338.49,291222,,,A*70
$GPGGA,184051.000,4158.4068,N,08754.0141,W,1,06,1.9,151.3,M,-34.1,M,,0000*6C
$GPGSA,M,3,16,03,27,31,22,08,,,,,,,2.9,1.9,2.1*35
$GPGSV,3,1,12,16,80,143,28,03,27,220,40,27,23,147,22,31,18,080,26*78
$GPGSV,3,2,12,22,12,133,28,08,05,173,29,07,70,338,26,51,37,207,*79
$GPGSV,3,3,12,14,42,311,,10,34,259,,29,21,059,,32,17,314,*77
$GPRMC,184051.000,A,4158.4068,N,08754.0141,W,0.00,338.49,291222,,,A*70
$GPGGA,184052.000,4158.4068,N,08754.0141,W,1,06,1.9,151.4,M,-34.1,M,,0000*68
$GPGSA,M,3,16,03,27,31,22,08,,,,,,,2.9,1.9,2.1*35
$GPRMC,184052.000,A,4158.4068,N,08754.0141,W,0.00,338.49,291222,,,A*73
$GPGGA,184053.000,4158.4067,N,08754.0141,W,1,06,1.9,151.5,M,-34.1,M,,0000*67
$GPGSA,M,3,16,03,27,31,22,08,,,,,,,2.9,1.9,2.1*35
$GPRMC,184053.000,A,4158.4067,N,08754.0141,W,0.00,338.49,291222,,,A*7D
$GPGGA,184054.000,4158.4066,N,08754.0140,W,1,06,1.9,151.5,M,-34.1,M,,0000*60
$GPGSA,M,3,16,03,27,31,22,08,,,,,,,2.9,1.9,2.1*35
$GPRMC,184054.000,A,4158.4066,N,08754.0140,W,0.00,338.49,291222,,,A*7A
$GPGGA,184055.000,4158.3992,N,08754.0125,W,1,06,1.9,162.9,M,-34.1,M,,0000*6B
$GPGSA,M,3,16,03,27,31,22,08,,,,,,,2.9,1.9,2.1*35
$GPRMC,184055.000,A,4158.3992,N,08754.0125,W,0.19,338.49,291222,,,A*75
$GPGGA,184056.000,4158.3992,N,08754.0125,W,1,06,1.9,163.0,M,-34.1,M,,0000*60
$GPGSA,M,3,16,03,27,31,22,08,,,,,,,2.9,1.9,2.1*35
$GPGSV,3,1,12,16,80,143,28,03,27,220,40,27,23,147,25,31,18,080,27*7E
$GPGSV,3,2,12,22,12,133,25,08,05,173,30,07,70,338,27,51,37,207,*7D
$GPGSV,3,3,12,14,42,311,,10,34,259,,29,21,059,,32,17,314,*77
$GPRMC,184056.000,A,4158.3992,N,08754.0125,W,0.00,338.49,291222,,,A*7E
$GPGGA,184057.000,4158.3955,N,08754.0119,W,1,06,1.9,168.8,M,-34.1,M,,0000*66
$GPGSA,M,3,16,03,27,31,22,08,,,,,,,2.9,1.9,2.1*35
$GPRMC,184057.000,A,4158.3955,N,08754.0119,W,0.25,338.49,291222,,,A*7C
$GPGGA,184058.000,4158.3955,N,08754.0119,W,1,06,1.9,168.8,M,-34.1,M,,0000*69
$GPGSA,M,3,16,03,27,31,22,08,,,,,,,2.9,1.9,2.1*35
$GPRMC,184058.000,A,4158.3955,N,08754.0119,W,0.00,338.49,291222,,,A*74
$GPGGA,184059.000,4158.3954,N,08754.0119,W,1,06,1.9,168.9,M,-34.1,M,,0000*68
$GPGSA,M,3,16,03,27,31,22,08,,,,,,,2.9,1.9,2.1*35
$GPRMC,184059.000,A,4158.3954,N,08754.0119,W,0.00,338.49,291222,,,A*74
$GPGGA,184100.000,4158.3954,N,08754.0119,W,1,06,1.9,168.9,M,-34.1,M,,0000*65
$GPGSA,M,3,16,03,27,31,22,08,,,,,,,2.9,1.9,2.1*35
$GPRMC,184100.000,A,4158.3954,N,08754.0119,W,0.00,338.49,291222,,,A*79
$GPGGA,184101.000,4158.3954,N,08754.0118,W,1,06,1.9,169.0,M,-34.1,M,,0000*6D
$GPGSA,M,3,16,03,27,31,22,08,,,,,,,2.9,1.9,2.1*35
$GPGSV,3,1,12,16,80,143,27,03,27,220,40,27,23,147,31,31,18,080,27*74
$GPGSV,3,2,12,22,12,133,27,08,05,173,29,07,70,338,27,51,37,207,*77
$GPGSV,3,3,12,14,42,311,,10,34,259,,29,21,059,,32,17,314,*77
$GPRMC,184101.000,A,4158.3954,N,08754.0118,W,0.00,338.49,291222,,,A*79
$GPGGA,184102.000,4158.3952,N,08754.0118,W,1,07,1.1,169.2,M,-34.1,M,,0000*63
$GPGSA,M,3,16,03,27,31,22,08,07,,,,,,1.8,1.1,1.4*3E
$GPRMC,184102.000,A,4158.3952,N,08754.0118,W,0.00,338.49,291222,,,A*7C
$GPGGA,184103.000,4158.3950,N,08754.0118,W,1,07,1.1,169.5,M,-34.1,M,,0000*67
$GPGSA,M,3,16,03,27,31,22,07,08,,,,,,1.8,1.1,1.4*3E
$GPRMC,184103.000,A,4158.3950,N,08754.0118,W,0.00,338.49,291222,,,A*7F
$GPGGA,184104.000,4158.3946,N,08754.0117,W,1,07,1.1,170.1,M,-34.1,M,,0000*64
$GPGSA,M,3,16,03,27,31,22,07,08,,,,,,1.8,1.1,1.4*3E
$GPRMC,184104.000,A,4158.3946,N,08754.0117,W,0.00,338.49,291222,,,A*70
$GPGGA,184105.000,4158.3942,N,08754.0116,W,1,07,1.1,170.8,M,-34.1,M,,0000*69
$GPGSA,M,3,16,03,27,31,22,07,08,,,,,,1.8,1.1,1.4*3E
$GPRMC,184105.000,A,4158.3942,N,08754.0116,W,0.00,338.49,291222,,,A*74
$GPGGA,184106.000,4158.3938,N,08754.0115,W,1,07,1.1,171.4,M,-34.1,M,,0000*69
$GPGSA,M,3,16,03,27,31,22,07,08,,,,,,1.8,1.1,1.4*3E
$GPGSV,3,1,12,16,81,137,27,03,27,220,39,27,24,146,31,31,17,081,28*7F
$GPGSV,3,2,12,22,11,133,27,07,10,275,28,08,06,173,29,48,25,234,*7D
$GPGSV,3,3,12,14,43,311,,10,34,258,,29,21,058,,32,18,314,*79
$GPRMC,184106.000,A,4158.3938,N,08754.0115,W,0.00,338.49,291222,,,A*79
$GPGGA,184107.000,4158.3934,N,08754.0115,W,1,07,1.1,172.0,M,-34.1,M,,0000*63
$GPGSA,M,3,16,03,27,31,22,07,08,,,,,,1.8,1.1,1.4*3E
$GPRMC,184107.000,A,4158.3934,N,08754.0115,W,0.00,338.49,291222,,,A*74
$GPGGA,184108.000,4158.3930,N,08754.0114,W,1,07,1.1,172.6,M,-34.1,M,,0000*6F
$GPGSA,M,3,16,03,27,31,22,07,08,,,,,,1.8,1.1,1.4*3E
$GPRMC,184108.000,A,4158.3930,N,08754.0114,W,0.00,338.49,291222,,,A*7E
$GPGGA,184109.000,4158.3927,N,08754.0113,W,1,07,1.1,173.1,M,-34.1,M,,0000*69
$GPGSA,M,3,16,03,27,31,22,07,08,,,,,,1.8,1.1,1.4*3E
$GPRMC,184109.000,A,4158.3927,N,08754.0113,W,0.00,338.49,291222,,,A*7E
$GPGGA,184110.000,4158.3923,N,08754.0112,W,1,07,1.1,173.7,M,-34.1,M,,0000*62
$GPGSA,M,3,16,03,27,31,22,07,08,,,,,,1.8,1.1,1.4*3E
$GPRMC,184110.000,A,4158.3923,N,08754.0112,W,0.00,338.49,291222,,,A*73
$GPGGA,184111.000,4158.3921,N,08754.0112,W,1,07,1.1,174.0,M,-34.1,M,,0000*61
$GPGSA,M,3,16,03,27,31,22,07,08,,,,,,1.8,1.1,1.4*3E
$GPGSV,3,1,12,16,81,137,26,03,27,220,39,27,24,146,31,31,17,081,28*7E
$GPGSV,3,2,12,22,11,133,28,07,10,275,28,08,06,173,29,48,25,234,31*70
$GPGSV,3,3,12,14,43,311,,10,34,258,,29,21,058,,32,18,314,*79
$GPRMC,184111.000,A,4158.3921,N,08754.0112,W,0.00,338.49,291222,,,A*70
$GPGGA,184112.000,4158.3919,N,08754.0112,W,1,07,1.1,174.3,M,-34.1,M,,0000*6A
$GPGSA,M,3,16,03,27,31,22,07,08,,,,,,1.8,1.1,1.4*3E
$GPRMC,184112.000,A,4158.3919,N,08754.0112,W,0.00,338.49,291222,,,A*78
$GPGGA,184113.000,4158.3917,N,08754.0111,W,1,07,1.1,174.7,M,-34.1,M,,0000*62
$GPGSA,M,3,16,03,27,31,22,07,08,,,,,,1.8,1.1,1.4*3E
$GPRMC,184113.000,A,4158.3917,N,08754.0111,W,0.00,338.49,291222,,,A*74
$GPGGA,184114.000,4158.3912,N,08754.0111,W,1,07,1.1,175.3,M,-34.1,M,,0000*65
$GPGSA,M,3,16,03,27,31,22,07,08,,,,,,1.8,1.1,1.4*3E
$GPRMC,184114.000,A,4158.3912,N,08754.0111,W,0.00,338.49,291222,,,A*76
$GPGGA,184115.000,4158.3911,N,08754.0110,W,1,07,1.1,175.6,M,-34.1,M,,0000*63
$GPGSA,M,3,16,03,27,31,22,07,08,,,,,,1.8,1.1,1.4*3E
$GPRMC,184115.000,A,4158.3911,N,08754.0110,W,0.00,338.49,291222,,,A*75
$GPGGA,184116.000,4158.3909,N,08754.0110,W,1,07,1.1,175.9,M,-34.1,M,,0000*66
$GPGSA,M,3,16,03,27,31,22,07,08,,,,,,1.8,1.1,1.4*3E
$GPGSV,3,1,12,16,81,137,25,03,27,220,38,27,24,146,31,31,17,081,29*7D
$GPGSV,3,2,12,22,11,133,28,07,10,275,27,08,06,173,29,48,25,234,31*7F
$GPGSV,3,3,12,14,43,311,,10,34,258,,29,21,058,,32,18,314,*79
$GPRMC,184116.000,A,4158.3909,N,08754.0110,W,0.00,338.49,291222,,,A*7F
$GPGGA,184117.000,4158.3907,N,08754.0109,W,1,07,1.1,176.2,M,-34.1,M,,0000*69
$GPGSA,M,3,16,03,27,31,22,07,08,,,,,,1.8,1.1,1.4*3E
$GPRMC,184117.000,A,4158.3907,N,08754.0109,W,0.00,338.49,291222,,,A*78
$GPGGA,184118.000,4158.3905,N,08754.0109,W,1,07,1.1,176.5,M,-34.1,M,,0000*63
$GPGSA,M,3,16,03,27,31,22,07,08,,,,,,1.8,1.1,1.4*3E
$GPRMC,184118.000,A,4158.3905,N,08754.0109,W,0.00,338.49,291222,,,A*75
$GPGGA,184119.000,4158.3903,N,08754.0109,W,1,07,1.1,176.8,M,-34.1,M,,0000*69
$GPGSA,M,3,16,03,27,31,22,07,08,,,,,,1.8,1.1,1.4*3E
$GPRMC,184119.000,A,4158.3903,N,08754.0109,W,0.00,338.49,291222,,,A*72
$GPGGA,184120.000,4158.3901,N,08754.0108,W,1,07,1.1,177.1,M,-34.1,M,,0000*68
$GPGSA,M,3,16,03,27,31,22,07,08,,,,,,1.8,1.1,1.4*3E
$GPRMC,184120.000,A,4158.3901,N,08754.0108,W,0.00,338.49,291222,,,A*7B
$GPGGA,184121.000,4158.3899,N,08754.0108,W,1,07,1.1,177.4,M,-34.1,M,,0000*6C
$GPGSA,M,3,16,03,27,31,22,07,08,,,,,,1.8,1.1,1.4*3E
$GPGSV,3,1,12,16,81,137,25,03,27,220,37,27,24,146,31,31,17,081,30*7A
$GPGSV,3,2,12,22,11,133,29,07,10,275,27,08,06,173,25,48,25,234,31*72
$GPGSV,3,3,12,14,43,311,,10,34,258,,29,21,058,,32,18,314,*79
$GPRMC,184121.000,A,4158.3899,N,08754.0108,W,0.00,338.49,291222,,,A*7A
$GPGGA,184122.000,4158.3897,N,08754.0108,W,1,07,1.1,177.7,M,-34.1,M,,0000*62
$GPGSA,M,3,16,03,27,31,22,07,08,,,,,,1.8,1.1,1.4*3E
$GPRMC,184122.000,A,4158.3897,N,08754.0108,W,0.00,338.49,291222,,,A*77
$GPGGA,184123.000,4158.3895,N,08754.0107,W,1,07,1.1,178.0,M,-34.1,M,,0000*66
$GPGSA,M,3,16,03,27,31,22,07,08,,,,,,1.8,1.1,1.4*3E
$GPRMC,184123.000,A,4158.3895,N,08754.0107,W,0.00,338.49,291222,,,A*7B
$GPGGA,184124.000,4158.3893,N,08754.0107,W,1,07,1.1,178.3,M,-34.1,M,,0000*64
$GPGSA,M,3,16,03,27,31,22,07,08,,,,,,1.8,1.1,1.4*3E
$GPRMC,184124.000,A,4158.3893,N,08754.0107,W,0.00,338.49,291222,,,A*7A
$GPGGA,184125.000,4158.3891,N,08754.0107,W,1,07,1.1,178.6,M,-34.1,M,,0000*62
$GPGSA,M,3,16,03,27,31,22,07,08,,,,,,1.8,1.1,1.4*3E
$GPRMC,184125.000,A,4158.3891,N,08754.0107,W,0.00,338.49,291222,,,A*79
$GPGGA,184126.000,4158.3889,N,08754.0106,W,1,07,1.1,178.9,M,-34.1,M,,0000*66
$GPGSA,M,3,16,03,27,31,22,07,08,,,,,,1.8,1.1,1.4*3E
$GPGSV,3,1,12,16,81,137,25,03,27,220,36,27,24,146,32,31,17,081,30*78
$GPGSV,3,2,12,22,11,133,29,07,10,275,26,08,06,173,25,48,25,234,30*72
$GPGSV,3,3,12,14,43,311,,10,34,258,,29,21,058,,32,18,314,*79
$GPRMC,184126.000,A,4158.3889,N,08754.0106,W,0.00,338.49,291222,,,A*72
$GPGGA,184127.000,4158.3887,N,08754.0106,W,1,07,1.1,179.2,M,-34.1,M,,0000*63
$GPGSA,M,3,16,03,27,31,22,07,08,,,,,,1.8,1.1,1.4*3E
$GPRMC,184127.000,A,4158.3887,N,08754.0106,W,0.00,338.49,291222,,,A*7D
$GPGGA,184128.000,4158.3885,N,08754.0106,W,1,07,1.1,179.5,M,-34.1,M,,0000*69
$GPGSA,M,3,16,03,27,31,22,07,08,,,,,,1.8,1.1,1.4*3E
$GPRMC,184128.000,A,4158.3885,N,08754.0106,W,0.00,338.49,291222,,,A*70
$GPGGA,184129.000,4158.3883,N,08754.0105,W,1,07,1.1,179.7,M,-34.1,M,,0000*6F
$GPGSA,M,3,16,03,27,31,22,07,08,,,,,,1.8,1.1,1.4*3E
$GPRMC,184129.000,A,4158.3883,N,08754.0105,W,0.00,338.49,291222,,,A*74
$GPGGA,184130.000,4158.3882,N,08754.0105,W,1,07,1.1,180.0,M,-34.1,M,,0000*67
$GPGSA,M,3,16,03,27,31,22,07,08,,,,,,1.8,1.1,1.4*3E
$GPRMC,184130.000,A,4158.3882,N,08754.0105,W,0.00,338.49,291222,,,A*7D
$GPGGA,184131.000,4158.3880,N,08754.0105,W,1,07,1.1,180.2,M,-34.1,M,,0000*66
$GPGSA,M,3,16,03,27,31,22,07,08,,,,,,1.8,1.1,1.4*3E
$GPGSV,3,1,12,16,81,137,24,03,27,220,35,27,24,146,32,31,17,081,30*7A
$GPGSV,3,2,12,22,11,133,29,07,10,275,22,08,06,173,25,48,25,234,30*76
$GPGSV,3,3,12,14,43,311,,10,34,258,,29,21,058,,32,18,314,*79
$GPRMC,184131.000,A,4158.3880,N,08754.0105,W,0.00,338.49,291222,,,A*7E
$GPGGA,184132.000,4158.3878,N,08754.0104,W,1,07,1.1,180.5,M,-34.1,M,,0000*64
$GPGSA,M,3,16,03,27,31,22,07,08,,,,,,1.8,1.1,1.4*3E
$GPRMC,184132.000,A,4158.3878,N,08754.0104,W,0.00,338.49,291222,,,A*7B
$GPGGA,184133.000,4158.3877,N,08754.0104,W,1,07,1.1,180.7,M,-34.1,M,,0000*68
$GPGSA,M,3,16,03,27,31,22,07,08,,,,,,1.8,1.1,1.4*3E
$GPRMC,184133.000,A,4158.3877,N,08754.0104,W,0.00,338.49,291222,,,A*75
$GPGGA,184134.000,4158.3875,N,08754.0104,W,1,07,1.1,181.0,M,-34.1,M,,0000*6B
$GPGSA,M,3,16,03,27,31,22,07,08,,,,,,1.8,1.1,1.4*3E
$GPRMC,184134.000,A,4158.3875,N,08754.0104,W,0.00,338.49,291222,,,A*70
$GPGGA,184135.000,4158.3874,N,08754.0104,W,1,07,1.1,181.2,M,-34.1,M,,0000*69
$GPGSA,M,3,16,03,27,31,22,07,08,,,,,,1.8,1.1,1.4*3E
$GPRMC,184135.000,A,4158.3874,N,08754.0104,W,0.00,338.49,291222,,,A*70
$GPGGA,184136.000,4158.3872,N,08754.0103,W,1,07,1.1,181.4,M,-34.1,M,,0000*6D
$GPGSA,M,3,16,03,27,31,22,07,08,,,,,,1.8,1.1,1.4*3E
$GPGSV,3,1,12,16,81,137,23,03,27,220,35,27,24,146,32,31,17,081,30*7D
$GPGSV,3,2,12,22,11,133,30,07,10,275,22,08,06,173,26,46,43,195,*78
$GPGSV,3,3,12,14,43,311,,10,34,258,,29,21,058,,32,18,314,*79
$GPRMC,184136.000,A,4158.3872,N,08754.0103,W,0.00,338.49,291222,,,A*72
$GPGGA,184137.000,4158.3870,N,08754.0103,W,1,07,1.1,181.7,M,-34.1,M,,0000*6D
$GPGSA,M,3,16,03,27,31,22,07,08,,,,,,1.8,1.1,1.4*3E
$GPRMC,184137.000,A,4158.3870,N,08754.0103,W,0.00,338.49,291222,,,A*71
$GPGGA,184138.000,4158.3869,N,08754.0103,W,1,07,1.1,181.9,M,-34.1,M,,0000*64
$GPGSA,M,3,16,03,27,31,22,07,08,,,,,,1.8,1.1,1.4*3E
$GPRMC,184138.000,A,4158.3869,N,08754.0103,W,0.00,338.49,291222,,,A*76
$GPGGA,184139.000,4158.3868,N,08754.0102,W,1,07,1.1,182.1,M,-34.1,M,,0000*6E
$GPGSA,M,3,16,03,27,31,22,07,08,,,,,,1.8,1.1,1.4*3E
$GPRMC,184139.000,A,4158.3868,N,08754.0102,W,0.00,338.49,291222,,,A*77
$GPGGA,184140.000,4158.3866,N,08754.0102,W,1,07,1.1,182.3,M,-34.1,M,,0000*6C
$GPGSA,M,3,16,03,27,31,22,07,08,,,,,,1.8,1.1,1.4*3E
$GPRMC,184140.000,A,4158.3866,N,08754.0102,W,0.00,338.49,291222,,,A*77
$GPGGA,184141.000,4158.3865,N,08754.0102,W,1,07,1.1,182.6,M,-34.1,M,,0000*6B
$GPGSA,M,3,16,03,27,31,22,07,08,,,,,,1.8,1.1,1.4*3E
$GPGSV,3,1,12,16,81,137,22,03,27,220,34,27,24,146,33,31,17,081,29*74
$GPGSV,3,2,12,22,11,133,32,07,10,275,21,08,06,173,26,46,43,195,36*7C
$GPGSV,3,3,12,14,43,311,,10,34,258,,29,21,058,,32,18,314,*79
$GPRMC,184141.000,A,4158.3865,N,08754.0102,W,0.00,338.49,291222,,,A*75
$GPGGA,184142.000,4158.3863,N,08754.0102,W,1,07,1.1,182.8,M,-34.1,M,,0000*60
$GPGSA,M,3,16,03,27,31,22,07,08,,,,,,1.8,1.1,1.4*3E
$GPRMC,184142.000,A,4158.3863,N,08754.0102,W,0.00,338.49,291222,,,A*70
$GPGGA,184143.000,4158.3862,N,08754.0101,W,1,07,1.1,183.0,M,-34.1,M,,0000*6A
$GPGSA,M,3,16,03,27,31,22,07,08,,,,,,1.8,1.1,1.4*3E
$GPRMC,184143.000,A,4158.3862,N,08754.0101,W,0.00,338.49,291222,,,A*73
$GPGGA,184144.000,4158.3861,N,08754.0101,W,1,07,1.1,183.1,M,-34.1,M,,0000*6F
$GPGSA,M,3,16,03,27,31,22,07,08,,,,,,1.8,1.1,1.4*3E
$GPRMC,184144.000,A,4158.3861,N,08754.0101,W,0.00,338.49,291222,,,A*77
$GPGGA,184145.000,4158.3859,N,08754.0101,W,1,07,1.1,183.3,M,-34.1,M,,0000*67
$GPGSA,M,3,16,03,27,31,22,07,08,,,,,,1.8,1.1,1.4*3E
$GPRMC,184145.000,A,4158.3859,N,08754.0101,W,0.00,338.49,291222,,,A*7D
$GPGGA,184146.000,4158.3858,N,08754.0101,W,1,07,1.1,183.5,M,-34.1,M,,0000*63
$GPGSA,M,3,16,03,27,31,22,07,08,,,,,,1.8,1.1,1.4*3E
$GPGSV,3,1,12,16,81,137,21,03,27,220,34,27,24,146,33,31,17,081,29*77
$GPGSV,3,2,12,22,11,133,33,07,10,275,21,08,06,173,27,46,43,195,36*7C
$GPGSV,3,3,12,14,43,311,,10,34,258,,29,21,058,,32,18,314,*79
$GPRMC,184146.000,A,4158.3858,N,08754.0101,W,0.00,338.49,291222,,,A*7F
$GPGGA,184147.000,4158.3857,N,08754.0101,W,1,07,1.1,183.7,M,-34.1,M,,0000*6F
$GPGSA,M,3,16,03,27,31,22,07,08,,,,,,1.8,1.1,1.4*3E
$GPRMC,184147.000,A,4158.3857,N,08754.0101,W,0.00,338.49,291222,,,A*71
$GPGGA,184148.000,4158.3856,N,08754.0100,W,1,07,1.1,183.9,M,-34.1,M,,0000*6E
$GPGSA,M,3,16,03,27,31,22,07,08,,,,,,1.8,1.1,1.4*3E
$GPRMC,184148.000,A,4158.3856,N,08754.0100,W,0.00,338.49,291222,,,A*7E
$GPGGA,184149.000,4158.3855,N,08754.0100,W,1,07,1.1,184.0,M,-34.1,M,,0000*62
$GPGSA,M,3,16,03,27,31,22,07,08,,,,,,1.8,1.1,1.4*3E
$GPRMC,184149.000,A,4158.3855,N,08754.0100,W,0.00,338.49,291222,,,A*7C
$GPGGA,184150.000,4158.3854,N,08754.0100,W,1,07,1.1,184.2,M,-34.1,M,,0000*69
$GPGSA,M,3,16,03,27,31,22,07,08,,,,,,1.8,1.1,1.4*3E
$GPRMC,184150.000,A,4158.3854,N,08754.0100,W,0.00,338.49,291222,,,A*75
$GPGGA,184151.000,4158.3853,N,08754.0100,W,1,07,1.1,184.3,M,-34.1,M,,0000*6E
$GPGSA,M,3,16,03,27,31,22,07,08,,,,,,1.8,1.1,1.4*3E
$GPGSV,3,1,12,16,81,137,21,03,27,220,34,27,24,146,33,31,17,081,28*76
$GPGSV,3,2,12,22,11,133,34,07,10,275,14,08,06,173,27,46,43,195,36*7D
$GPGSV,3,3,12,14,43,311,,10,34,258,,29,21,058,,32,18,314,*79
$GPRMC,184151.000,A,4158.3853,N,08754.0100,W,0.00,338.49,291222,,,A*73
$GPGGA,184152.000,4158.3852,N,08754.0100,W,1,07,1.1,184.4,M,-34.1,M,,0000*6B
$GPGSA,M,3,16,03,27,31,22,07,08,,,,,,1.8,1.1,1.4*3E
$GPRMC,184152.000,A,4158.3852,N,08754.0100,W,0.00,338.49,291222,,,A*71
$GPGGA,184153.000,4158.3852,N,08754.0100,W,1,07,1.1,184.5,M,-34.1,M,,0000*6B
$GPGSA,M,3,16,03,27,31,22,07,08,,,,,,1.8,1.1,1.4*3E
$GPRMC,184153.000,A,4158.3852,N,08754.0100,W,0.00,338.49,291222,,,A*70
$GPGGA,184154.000,4158.3851,N,08754.0099,W,1,07,1.1,184.6,M,-34.1,M,,0000*6D
$GPGSA,M,3,16,03,27,31,22,07,08,,,,,,1.8,1.1,1.4*3E
$GPRMC,184154.000,A,4158.3851,N,08754.0099,W,0.00,338.49,291222,,,A*75
$GPGGA,184155.000,4158.3850,N,08754.0099,W,1,07,1.1,184.7,M,-34.1,M,,0000*6C
$GPGSA,M,3,16,03,27,31,22,07,08,,,,,,1.8,1.1,1.4*3E
$GPRMC,184155.000,A,4158.3850,N,08754.0099,W,0.00,338.49,291222,,,A*75
$GPGGA,184156.000,4158.3850,N,08754.0099,W,1,07,1.1,184.8,M,-34.1,M,,0000*60
$GPGSA,M,3,16,03,27,31,22,07,08,,,,,,1.8,1.1,1.4*3E
$GPGSV,3,1,12,16,81,137,22,03,27,220,34,27,24,146,32,31,17,081,28*74
$GPGSV,3,2,12,22,11,133,34,07,10,275,17,08,06,173,30,46,43,195,33*7D
$GPGSV,3,3,12,14,43,311,,10,34,258,,29,21,058,,32,18,314,*79
$GPRMC,184156.000,A,4158.3850,N,08754.0099,W,0.00,338.49,291222,,,A*76
$GPGGA,184157.000,4158.3850,N,08754.0099,W,1,07,1.1,184.8,M,-34.1,M,,0000*61
$GPGSA,M,3,16,03,27,31,22,07,08,,,,,,1.8,1.1,1.4*3E
$GPRMC,184157.000,A,4158.3850,N,08754.0099,W,0.00,338.49,291222,,,A*77
$GPGGA,184158.000,4158.3850,N,08754.0099,W,1,07,1.1,184.8,M,-34.1,M,,0000*6E
$GPGSA,M,3,16,03,27,31,22,07,08,,,,,,1.8,1.1,1.4*3E
$GPRMC,184158.000,A,4158.3850,N,08754.0099,W,0.00,338.49,291222,,,A*78
$GPGGA,184159.000,4158.3849,N,08754.0099,W,1,07,1.1,184.9,M,-34.1,M,,0000*66
$GPGSA,M,3,16,03,27,31,22,07,08,,,,,,1.8,1.1,1.4*3E
$GPRMC,184159.000,A,4158.3849,N,08754.0099,W,0.00,338.49,291222,,,A*71
$GPGGA,184200.000,4158.3849,N,08754.0099,W,1,07,1.1,184.9,M,-34.1,M,,0000*69
$GPGSA,M,3,16,03,27,31,22,07,08,,,,,,1.8,1.1,1.4*3E
$GPRMC,184200.000,A,4158.3849,N,08754.0099,W,0.00,338.49,291222,,,A*7E
$GPGGA,184201.000,4158.3849,N,08754.0099,W,1,07,1.1,184.9,M,-34.1,M,,0000*68
$GPGSA,M,3,16,03,27,31,22,07,08,,,,,,1.8,1.1,1.4*3E
$GPGSV,3,1,12,16,81,137,22,03,27,220,35,27,24,146,31,31,17,081,20*7E
$GPGSV,3,2,12,22,11,133,35,07,10,275,19,08,06,173,30,48,25,234,*74
$GPGSV,3,3,12,14,43,311,,10,34,258,,29,21,058,,32,18,314,*79
$GPRMC,184201.000,A,4158.3849,N,08754.0099,W,0.00,338.49,291222,,,A*7F
$GPGGA,184202.000,4158.3849,N,08754.0099,W,1,07,1.1,184.9,M,-34.1,M,,0000*6B
$GPGSA,M,3,16,03,27,31,22,07,08,,,,,,1.8,1.1,1.4*3E
$GPRMC,184202.000,A,4158.3849,N,08754.0099,W,0.00,338.49,291222,,,A*7C
$GPGGA,184203.000,4158.3849,N,08754.0099,W,1,07,1.1,185.0,M,-34.1,M,,0000*62
$GPGSA,M,3,16,03,27,31,22,07,08,,,,,,1.8,1.1,1.4*3E
$GPRMC,184203.000,A,4158.3849,N,08754.0099,W,0.00,338.49,291222,,,A*7D
$GPGGA,184204.000,4158.3848,N,08754.0099,W,1,07,1.1,185.0,M,-34.1,M,,0000*64
$GPGSA,M,3,16,03,27,31,22,07,08,,,,,,1.8,1.1,1.4*3E
$GPRMC,184204.000,A,4158.3848,N,08754.0099,W,0.00,338.49,291222,,,A*7B
$GPGGA,184205.000,4158.3848,N,08754.0099,W,1,07,1.1,185.0,M,-34.1,M,,0000*65
$GPGSA,M,3,16,03,27,31,22,07,08,,,,,,1.8,1.1,1.4*3E
$GPRMC,184205.000,A,4158.3848,N,08754.0099,W,0.00,338.49,291222,,,A*7A
$GPGGA,184206.000,4158.3848,N,08754.0099,W,1,07,1.1,185.1,M,-34.1,M,,0000*67
$GPGSA,M,3,16,03,27,31,22,07,08,,,,,,1.8,1.1,1.4*3E
$GPGSV,3,1,12,16,81,137,21,03,27,220,35,27,24,146,31,31,17,081,20*7D
$GPGSV,3,2,12,22,11,133,35,07,10,275,21,08,06,173,30,48,25,234,*7F
$GPGSV,3,3,12,14,43,311,,10,34,258,,29,21,058,,32,18,314,*79
$GPRMC,184206.000,A,4158.3848,N,08754.0099,W,0.00,338.49,291222,,,A*79
$GPGGA,184207.000,4158.3848,N,08754.0099,W,1,07,1.1,185.1,M,-34.1,M,,0000*66
$GPGSA,M,3,16,03,27,31,22,07,08,,,,,,1.8,1.1,1.4*3E
$GPRMC,184207.000,A,4158.3848,N,08754.0099,W,0.00,338.49,291222,,,A*78
$GPGGA,184208.000,4158.3848,N,08754.0099,W,1,07,1.1,185.1,M,-34.1,M,,0000*69
$GPGSA,M,3,16,03,27,31,22,07,08,,,,,,1.8,1.1,1.4*3E
$GPRMC,184208.000,A,4158.3848,N,08754.0099,W,0.00,338.49,291222,,,A*77
$GPGGA,184209.000,4158.3848,N,08754.0099,W,1,07,1.1,185.1,M,-34.1,M,,0000*68
$GPGSA,M,3,16,03,27,31,22,07,08,,,,,,1.8,1.1,1.4*3E
$GPRMC,184209.000,A,4158.3848,N,08754.0099,W,0.00,338.49,291222,,,A*76
$GPGGA,184210.000,4158.3847,N,08754.0098,W,1,07,1.1,185.2,M,-34.1,M,,0000*6D
$GPGSA,M,3,16,03,27,31,22,07,08,,,,,,1.8,1.1,1.4*3E
$GPRMC,184210.000,A,4158.3847,N,08754.0098,W,0.00,338.49,291222,,,A*70
$GPGGA,184211.000,4158.3847,N,08754.0098,W,1,07,1.1,185.2,M,-34.1,M,,0000*6C
$GPGSA,M,3,16,03,27,31,22,07,08,,,,,,1.8,1.1,1.4*3E
$GPGSV,3,1,12,16,81,137,21,03,27,220,35,27,24,146,31,31,17,081,19*77
$GPGSV,3,2,12,22,11,133,36,07,10,275,22,08,06,173,30,48,25,234,31*7D
$GPGSV,3,3,12,14,43,311,,10,34,258,,29,21,058,,32,18,314,*79
$GPRMC,184211.000,A,4158.3847,N,08754.0098,W,0.00,338.49,291222,,,A*71
$GPGGA,184212.000,4158.3847,N,08754.0098,W,1,07,1.1,185.2,M,-34.1,M,,0000*6F
$GPGSA,M,3,16,03,27,31,22,07,08,,,,,,1.8,1.1,1.4*3E
$GPRMC,184212.000,A,4158.3847,N,08754.0098,W,0.00,338.49,291222,,,A*72
$GPGGA,184213.000,4158.3847,N,08754.0098,W,1,07,1.1,185.3,M,-34.1,M,,0000*6F
$GPGSA,M,3,16,03,27,31,22,07,08,,,,,,1.8,1.1,1.4*3E
$GPRMC,184213.000,A,4158.3847,N,08754.0098,W,0.00,338.49,291222,,,A*73
$GPGGA,184214.000,4158.3847,N,08754.0098,W,1,07,1.1,185.3,M,-34.1,M,,0000*68
$GPGSA,M,3,16,03,27,31,22,07,08,,,,,,1.8,1.1,1.4*3E
$GPRMC,184214.000,A,4158.3847,N,08754.0098,W,0.00,338.49,291222,,,A*74
$GPGGA,184215.000,4158.3847,N,08754.0098,W,1,07,1.1,185.3,M,-34.1,M,,0000*69
$GPGSA,M,3,16,03,27,31,22,07,08,,,,,,1.8,1.1,1.4*3E
$GPRMC,184215.000,A,4158.3847,N,08754.0098,W,0.00,338.49,291222,,,A*75
$GPGGA,184216.000,4158.3846,N,08754.0098,W,1,07,1.1,185.3,M,-34.1,M,,0000*6B
$GPGSA,M,3,16,03,27,31,22,07,08,,,,,,1.8,1.1,1.4*3E
$GPGSV,3,1,12,16,81,137,21,03,27,220,36,27,24,146,31,31,17,081,18*75
$GPGSV,3,2,12,22,11,133,36,07,10,275,23,08,06,173,30,48,25,234,30*7D
$GPGSV,3,3,12,14,43,311,,10,34,258,,29,21,058,,32,18,314,*79
$GPRMC,184216.000,A,4158.3846,N,08754.0098,W,0.00,338.49,291222,,,A*77
$GPGGA,184217.000,4158.3846,N,08754.0098,W,1,07,1.1,185.4,M,-34.1,M,,0000*6D
$GPGSA,M,3,16,03,27,31,22,07,08,,,,,,1.8,1.1,1.4*3E
$GPRMC,184217.000,A,4158.3846,N,08754.0098,W,0.00,338.49,291222,,,A*76
$GPGGA,184218.000,4158.3846,N,08754.0098,W,1,07,1.1,185.4,M,-34.1,M,,0000*62
$GPGSA,M,3,16,03,27,31,22,07,08,,,,,,1.8,1.1,1.4*3E
$GPRMC,184218.000,A,4158.3846,N,08754.0098,W,0.00,338.49,291222,,,A*79
$GPGGA,184219.000,4158.3846,N,08754.0098,W,1,07,1.1,185.4,M,-34.1,M,,0000*63
$GPGSA,M,3,16,03,27,31,22,07,08,,,,,,1.8,1.1,1.4*3E
$GPRMC,184219.000,A,4158.3846,N,08754.0098,W,0.00,338.49,291222,,,A*78
$GPGGA,184220.000,4158.3845,N,08754.0098,W,1,07,1.1,185.5,M,-34.1,M,,0000*6B
$GPGSA,M,3,16,03,27,31,22,07,08,,,,,,1.8,1.1,1.4*3E
$GPRMC,184220.000,A,4158.3845,N,08754.0098,W,0.00,338.49,291222,,,A*71
$GPGGA,184221.000,4158.3845,N,08754.0098,W,1,07,1.1,185.5,M,-34.1,M,,0000*6A
$GPGSA,M,3,16,03,27,31,22,07,08,,,,,,1.8,1.1,1.4*3E
$GPGSV,3,1,12,16,81,137,21,03,27,220,37,27,24,146,32,31,17,081,18*77
$GPGSV,3,2,12,22,11,133,36,07,10,275,25,08,06,173,30,48,25,234,30*7B
$GPGSV,3,3,12,14,43,311,,10,34,258,,29,21,058,,32,18,314,*79
$GPRMC,184221.000,A,4158.3845,N,08754.0098,W,0.00,338.49,291222,,,A*70
$GPGGA,184222.000,4158.3845,N,08754.0098,W,1,07,1.1,185.5,M,-34.1,M,,0000*69
$GPGSA,M,3,16,03,27,31,22,07,08,,,,,,1.8,1.1,1.4*3E
$GPRMC,184222.000,A,4158.3845,N,08754.0098,W,0.00,338.49,291222,,,A*73
$GPGGA,184223.000,4158.3845,N,08754.0098,W,1,07,1.1,185.6,M,-34.1,M,,0000*6B
$GPGSA,M,3,16,03,27,31,22,07,08,,,,,,1.8,1.1,1.4*3E
$GPRMC,184223.000,A,4158.3845,N,08754.0098,W,0.00,338.49,291222,,,A*72
$GPGGA,184224.000,4158.3845,N,08754.0098,W,1,07,1.1,185.6,M,-34.1,M,,0000*6C
$GPGSA,M,3,16,03,27,31,22,07,08,,,,,,1.8,1.1,1.4*3E
$GPRMC,184224.000,A,4158.3845,N,08754.0098,W,0.00,338.49,291222,,,A*75
$GPGGA,184225.000,4158.3844,N,08754.0098,W,1,07,1.1,185.7,M,-34.1,M,,0000*6D
$GPGSA,M,3,16,03,27,31,22,07,08,,,,,,1.8,1.1,1.4*3E
$GPRMC,184225.000,A,4158.3844,N,08754.0098,W,0.00,338.49,291222,,,A*75
$GPGGA,184226.000,4158.3844,N,08754.0097,W,1,07,1.1,185.7,M,-34.1,M,,0000*61
$GPGSA,M,3,16,03,27,31,22,07,08,,,,,,1.8,1.1,1.4*3E
$GPGSV,3,1,12,16,81,137,21,03,27,220,37,27,24,146,32,31,17,081,20*7C
$GPGSV,3,2,12,22,11,133,38,07,10,275,25,08,06,173,30,48,25,234,28*7C
$GPGSV,3,3,12,14,43,311,,10,34,258,,29,21,058,,32,18,314,*79
$GPRMC,184226.000,A,4158.3844,N,08754.0097,W,0.00,338.49,291222,,,A*79
$GPGGA,184227.000,4158.3844,N,08754.0097,W,1,07,1.1,185.7,M,-34.1,M,,0000*60
$GPGSA,M,3,16,03,27,31,22,07,08,,,,,,1.8,1.1,1.4*3E
$GPRMC,184227.000,A,4158.3844,N,08754.0097,W,0.00,338.49,291222,,,A*78
$GPGGA,184228.000,4158.3844,N,08754.0097,W,1,07,1.1,185.8,M,-34.1,M,,0000*60
$GPGSA,M,3,16,03,27,31,22,07,08,,,,,,1.8,1.1,1.4*3E
$GPRMC,184228.000,A,4158.3844,N,08754.0097,W,0.00,338.49,291222,,,A*77
$GPGGA,184229.000,4158.3843,N,08754.0097,W,1,07,1.1,185.8,M,-34.1,M,,0000*66
$GPGSA,M,3,16,03,27,31,22,07,08,,,,,,1.8,1.1,1.4*3E
$GPRMC,184229.000,A,4158.3843,N,08754.0097,W,0.00,338.49,291222,,,A*71
$GPGGA,184230.000,4158.3843,N,08754.0097,W,1,07,1.1,185.9,M,-34.1,M,,0000*6F
$GPGSA,M,3,16,03,27,31,22,07,08,,,,,,1.8,1.1,1.4*3E
$GPRMC,184230.000,A,4158.3843,N,08754.0097,W,0.00,338.49,291222,,,A*79
$GPGGA,184231.000,4158.3843,N,08754.0097,W,1,07,1.1,185.9,M,-34.1,M,,0000*6E
$GPGSA,M,3,16,03,27,31,22,07,08,,,,,,1.8,1.1,1.4*3E
$GPGSV,3,1,12,16,81,137,22,03,27,220,37,27,24,146,32,31,17,081,26*79
$GPGSV,3,2,12,22,11,133,38,07,10,275,26,08,06,173,29,46,43,195,33*7B
$GPGSV,3,3,12,14,43,311,,10,34,258,,29,21,058,,32,18,314,*79
$GPRMC,184231.000,A,4158.3843,N,08754.0097,W,0.00,338.49,291222,,,A*78
$GPGGA,184232.000,4158.3811,N,08754.0089,W,1,07,1.1,190.8,M,-34.1,M,,0000*60
$GPGSA,M,3,16,03,27,31,22,07,08,,,,,,1.8,1.1,1.4*3E
$GPRMC,184232.000,A,4158.3811,N,08754.0089,W,0.34,338.49,291222,,,A*74
$GPGGA,184233.000,4158.3811,N,08754.0089,W,1,07,1.1,190.8,M,-34.1,M,,0000*61
$GPGSA,M,3,16,03,27,31,22,07,08,,,,,,1.8,1.1,1.4*3E
$GPRMC,184233.000,A,4158.3811,N,08754.0089,W,0.00,338.49,291222,,,A*72
$GPGGA,184234.000,4158.3811,N,08754.0089,W,1,07,1.1,190.8,M,-34.1,M,,0000*66
$GPGSA,M,3,16,03,27,31,22,07,08,,,,,,1.8,1.1,1.4*3E
$GPRMC,184234.000,A,4158.3811,N,08754.0089,W,0.00,338.49,291222,,,A*75
$GPGGA,184235.000,4158.3810,N,08754.0089,W,1,07,1.1,190.9,M,-34.1,M,,0000*67
$GPGSA,M,3,16,03,27,31,22,07,08,,,,,,1.8,1.1,1.4*3E
$GPRMC,184235.000,A,4158.3810,N,08754.0089,W,0.00,338.49,291222,,,A*75
$GPGGA,184236.000,4158.3810,N,08754.0089,W,1,07,1.1,190.9,M,-34.1,M,,0000*64
$GPGSA,M,3,16,03,27,31,22,07,08,,,,,,1.8,1.1,1.4*3E
$GPGSV,3,1,12,16,81,137,21,03,27,220,37,27,24,146,32,31,17,081,26*7A
$GPGSV,3,2,12,22,11,133,38,07,10,275,26,08,06,173,25,46,43,195,35*71
$GPGSV,3,3,12,14,43,311,,10,34,258,,29,21,058,,32,18,314,*79
$GPRMC,184236.000,A,4158.3810,N,08754.0089,W,0.00,338.49,291222,,,A*76
$GPGGA,184237.000,4158.3810,N,08754.0089,W,1,07,1.1,191.0,M,-34.1,M,,0000*6D
$GPGSA,M,3,16,03,27,31,22,07,08,,,,,,1.8,1.1,1.4*3E
$GPRMC,184237.000,A,4158.3810,N,08754.0089,W,0.00,338.49,291222,,,A*77
$GPGGA,184238.000,4158.3809,N,08754.0089,W,1,07,1.1,191.0,M,-34.1,M,,0000*6A
$GPGSA,M,3,16,03,27,31,22,07,08,,,,,,1.8,1.1,1.4*3E
$GPRMC,184238.000,A,4158.3809,N,08754.0089,W,0.00,338.49,291222,,,A*70
$GPGGA,184239.000,4158.3809,N,08754.0089,W,1,07,1.1,191.1,M,-34.1,M,,0000*6A
$GPGSA,M,3,16,03,27,31,22,07,08,,,,,,1.8,1.1,1.4*3E
$GPRMC,184239.000,A,4158.3809,N,08754.0089,W,0.00,338.49,291222,,,A*71
$GPGGA,184240.000,4158.3809,N,08754.0089,W,1,07,1.1,191.1,M,-34.1,M,,0000*64
$GPGSA,M,3,16,03,27,31,22,07,08,,,,,,1.8,1.1,1.4*3E
$GPRMC,184240.000,A,4158.3809,N,08754.0089,W,0.00,338.49,291222,,,A*7F
$GPGGA,184241.000,4158.3809,N,08754.0089,W,1,07,1.1,191.2,M,-34.1,M,,0000*66
$GPGSA,M,3,16,03,27,31,22,07,08,,,,,,1.8,1.1,1.4*3E
$GPGSV,3,1,12,16,81,137,22,03,27,220,39,27,24,146,32,31,17,081,26*77
$GPGSV,3,2,12,22,11,133,37,07,10,275,25,08,06,173,25,48,25,234,29*76
$GPGSV,3,3,12,14,43,311,,10,34,258,,29,21,058,,32,18,314,*79
$GPRMC,184241.000,A,4158.3809,N,08754.0089,W,0.00,338.49,291222,,,A*7E
$GPGGA,184242.000,4158.3808,N,08754.0089,W,1,07,1.1,191.2,M,-34.1,M,,0000*64
$GPGSA,M,3,16,03,27,31,22,07,08,,,,,,1.8,1.1,1.4*3E
$GPRMC,184242.000,A,4158.3808,N,08754.0089,W,0.00,338.49,291222,,,A*7C
$GPGGA,184243.000,4158.3808,N,08754.0089,W,1,07,1.1,191.3,M,-34.1,M,,0000*64
$GPGSA,M,3,16,03,27,31,22,07,08,,,,,,1.8,1.1,1.4*3E
$GPRMC,184243.000,A,4158.3808,N,08754.0089,W,0.00,338.49,291222,,,A*7D
$GPGGA,184244.000,4158.3808,N,08754.0088,W,1,07,1.1,191.3,M,-34.1,M,,0000*62
$GPGSA,M,3,16,03,27,31,22,07,08,,,,,,1.8,1.1,1.4*3E
$GPRMC,184244.000,A,4158.3808,N,08754.0088,W,0.00,338.49,291222,,,A*7B
$GPGGA,184245.000,4158.3807,N,08754.0088,W,1,07,1.1,191.3,M,-34.1,M,,0000*6C
$GPGSA,M,3,16,03,27,31,22,07,08,,,,,,1.8,1.1,1.4*3E
$GPRMC,184245.000,A,4158.3807,N,08754.0088,W,0.00,338.49,291222,,,A*75
$GPGGA,184246.000,4158.3807,N,08754.0088,W,1,07,1.1,191.4,M,-34.1,M,,0000*68
$GPGSA,M,3,16,03,27,31,22,07,08,,,,,,1.8,1.1,1.4*3E
$GPGSV,3,1,12,16,81,137,23,03,27,220,39,27,24,146,32,31,17,081,26*76
$GPGSV,3,2,12,22,11,133,37,07,10,275,25,08,06,173,26,48,25,234,29*75
$GPGSV,3,3,12,14,43,311,,10,34,258,,29,21,058,,32,18,314,*79
$GPRMC,184246.000,A,4158.3807,N,08754.0088,W,0.00,338.49,291222,,,A*76
$GPGGA,184247.000,4158.3807,N,08754.0088,W,1,07,1.1,191.4,M,-34.1,M,,0000*69
$GPGSA,M,3,16,03,27,31,22,07,08,,,,,,1.8,1.1,1.4*3E
$GPRMC,184247.000,A,4158.3807,N,08754.0088,W,0.00,338.49,291222,,,A*77
$GPGGA,184248.000,4158.3807,N,08754.0088,W,1,07,1.1,191.5,M,-34.1,M,,0000*67
$GPGSA,M,3,16,03,27,31,22,07,08,,,,,,1.8,1.1,1.4*3E
$GPRMC,184248.000,A,4158.3807,N,08754.0088,W,0.00,338.49,291222,,,A*78
$GPGGA,184249.000,4158.3806,N,08754.0088,W,1,07,1.1,191.5,M,-34.1,M,,0000*67
$GPGSA,M,3,16,03,27,31,22,07,08,,,,,,1.8,1.1,1.4*3E
$GPRMC,184249.000,A,4158.3806,N,08754.0088,W,0.00,338.49,291222,,,A*78
$GPGGA,184250.000,4158.3806,N,08754.0088,W,1,07,1.1,191.5,M,-34.1,M,,0000*6F
$GPGSA,M,3,16,03,27,31,22,07,08,,,,,,1.8,1.1,1.4*3E
$GPRMC,184250.000,A,4158.3806,N,08754.0088,W,0.00,338.49,291222,,,A*70
$GPGGA,184251.000,4158.3806,N,08754.0088,W,1,07,1.1,191.6,M,-34.1,M,,0000*6D
$GPGSA,M,3,16,03,27,31,22,07,08,,,,,,1.8,1.1,1.4*3E
$GPGSV,3,1,12,16,81,137,24,03,27,220,39,27,24,146,33,31,17,081,25*73
$GPGSV,3,2,12,22,11,133,36,07,10,275,20,08,06,173,26,48,25,234,30*79
$GPGSV,3,3,12,14,43,311,,10,34,258,,29,21,058,,32,18,314,*79
$GPRMC,184251.000,A,4158.3806,N,08754.0088,W,0.00,338.49,291222,,,A*71
$GPGGA,184252.000,4158.3806,N,08754.0088,W,1,07,1.1,191.6,M,-34.1,M,,0000*6E
$GPGSA,M,3,16,03,27,31,22,07,08,,,,,,1.8,1.1,1.4*3E
$GPRMC,184252.000,A,4158.3806,N,08754.0088,W,0.00,338.49,291222,,,A*72
$GPGGA,184253.000,4158.3806,N,08754.0088,W,1,07,1.1,191.6,M,-34.1,M,,0000*6F
$GPGSA,M,3,16,03,27,31,22,07,08,,,,,,1.8,1.1,1.4*3E
$GPRMC,184253.000,A,4158.3806,N,08754.0088,W,0.00,338.49,291222,,,A*73
$GPGGA,184254.000,4158.3805,N,08754.0088,W,1,07,1.1,191.6,M,-34.1,M,,0000*6B
$GPGSA,M,3,16,03,27,31,22,07,08,,,,,,1.8,1.1,1.4*3E
$GPRMC,184254.000,A,4158.3805,N,08754.0088,W,0.00,338.49,291222,,,A*77
$GPGGA,184255.000,4158.3805,N,08754.0088,W,1,07,1.1,191.7,M,-34.1,M,,0000*6B
$GPGSA,M,3,16,03,27,31,22,07,08,,,,,,1.8,1.1,1.4*3E
$GPRMC,184255.000,A,4158.3805,N,08754.0088,W,0.00,338.49,291222,,,A*76
$GPGGA,184256.000,4158.3805,N,08754.0088,W,1,07,1.1,191.7,M,-34.1,M,,0000*68
$GPGSA,M,3,16,03,27,31,22,07,08,,,,,,1.8,1.1,1.4*3E
$GPGSV,3,1,12,16,81,137,24,03,27,220,39,27,24,146,34,31,17,081,25*74
