$GPGGA,194851.000,4220.2439,N,07105.2415,W,1,07,1.0,-48.9,M,-33.8,M,,0000*7C
$GPGSA,M,3,10,24,32,18,15,12,21,,,,,,1.7,1.0,1.4*37
$GPRMC,194851.000,A,4220.2439,N,07105.2415,W,0.00,332.82,140922,,,A*71
$GPGGA,194852.000,4220.2439,N,07105.2415,W,1,07,1.0,-48.8,M,-33.8,M,,0000*7E
$GPGSA,M,3,10,24,32,18,15,12,21,,,,,,1.7,1.0,1.4*37
$GPGSV,3,1,12,10,65,314,48,24,55,063,34,32,39,272,29,18,22,187,39*7E
$GPGSV,3,2,12,15,19,077,29,12,16,120,38,21,05,328,19,23,00,000,47*75
$GPGSV,3,3,12,51,29,227,,20,83,168,,31,55,188,,22,32,306,*73
$GPRMC,194852.000,A,4220.2439,N,07105.2415,W,0.00,332.82,140922,,,A*72
$GPGGA,194853.000,4220.2439,N,07105.2415,W,1,07,1.0,-48.7,M,-33.8,M,,0000*70
$GPGSA,M,3,10,24,32,18,15,12,21,,,,,,1.7,1.0,1.4*37
$GPRMC,194853.000,A,4220.2439,N,07105.2415,W,0.00,332.82,140922,,,A*73
$GPGGA,194854.000,4220.2439,N,07105.2415,W,1,07,1.0,-48.6,M,-33.8,M,,0000*76
$GPGSA,M,3,10,24,32,18,15,12,21,,,,,,1.7,1.0,1.4*37
$GPRMC,194854.000,A,4220.2439,N,07105.2415,W,0.00,332.82,140922,,,A*74
$GPGGA,194855.000,4220.2438,N,07105.2414,W,1,07,1.0,-48.5,M,-33.8,M,,0000*74
$GPGSA,M,3,10,24,32,18,15,12,21,,,,,,1.7,1.0,1.4*37
$GPRMC,194855.000,A,4220.2438,N,07105.2414,W,0.00,332.82,140922,,,A*75
$GPGGA,194856.000,4220.2438,N,07105.2414,W,1,07,1.0,-48.4,M,-33.8,M,,0000*76
$GPGSA,M,3,10,24,32,18,15,12,21,,,,,,1.7,1.0,1.4*37
$GPRMC,194856.000,A,4220.2438,N,07105.2414,W,0.00,332.82,140922,,,A*76
$GPGGA,194857.000,4220.2438,N,07105.2414,W,1,07,1.0,-48.3,M,-33.8,M,,0000*70
$GPGSA,M,3,10,24,32,18,15,12,21,,,,,,1.7,1.0,1.4*37
$GPGSV,3,1,12,10,65,314,49,24,55,063,33,32,39,272,29,18,22,187,38*79
[1;33r[33;1H
[1;34r[33;1H$GPGSV,3,2,12,15,19,077,29,12,16,120,39,21,05,328,24,23,00,000,47*7A
[1;33r[33;1H
[1;34r[33;1H$GPGSV,3,3,12,51,29,227,,20,83,168,,31,55,188,,22,32,306,*73
[1;33r[33;1H
[1;34r[33;1H$GPRMC,194857.000,A,4220.2438,N,07105.2414,W,0.00,332.82,140922,,,A*77
[1;33r[33;1H
[1;34r[33;1H$GPGGA,194858.000,4220.2438,N,07105.2414,W,1,07,1.0,-48.2,M,-33.8,M,,0000*7E
[1;33r[33;1H
[1;34r[33;1H$GPGSA,M,3,10,24,32,18,15,12,21,,,,,,1.7,1.0,1.4*37
[1;33r[33;1H
[1;34r[33;1H$GPRMC,194858.000,A,4220.2438,N,07105.2414,W,0.00,332.82,140922,,,A*78
[1;33r[33;1H
[1;34r[33;1H$GPGGA,194859.000,4220.2438,N,07105.2413,W,1,07,1.0,-48.1,M,-33.8,M,,0000*7B
[1;33r[33;1H
[1;34r[33;1H$GPGSA,M,3,10,24,32,18,15,12,21,,,,,,1.7,1.0,1.4*37
[1;33r[33;1H
[1;34r[33;1H$GPRMC,194859.000,A,4220.2438,N,07105.2413,W,0.00,332.82,140922,,,A*7E
[1;33r[33;1H
[1;34r[33;1H$GPGGA,194900.000,4220.2437,N,07105.2413,W,1,07,1.0,-48.0,M,-33.8,M,,0000*78
[1;33r[33;1H
[1;34r[33;1H$GPGSA,M,3,10,24,32,18,15,12,21,,,,,,1.7,1.0,1.4*37
[1;33r[33;1H
[1;34r[33;1H$GPRMC,194900.000,A,4220.2437,N,07105.2413,W,0.00,332.82,140922,,,A*7C
[1;33r[33;1H
[1;34r[33;1H$GPGGA,194901.000,4220.2437,N,07105.2413,W,1,07,1.0,-48.0,M,-33.8,M,,0000*79
[1;33r[33;1H
[1;34r[33;1H$GPGSA,M,3,10,24,32,18,15,12,21,,,,,,1.7,1.0,1.4*37
[1;33r[33;1H
[1;34r[33;1H$GPRMC,194901.000,A,4220.2437,N,07105.2413,W,0.00,332.82,140922,,,A*7D
[1;33r[33;1H
[1;34r[33;1H$GPGGA,194902.000,4220.2437,N,07105.2413,W,1,07,1.0,-47.9,M,-33.8,M,,0000*7C
[1;33r[33;1H
[1;34r[33;1H$GPGSA,M,3,10,24,32,18,15,12,21,,,,,,1.7,1.0,1.4*37
[1;33r[33;1H
[1;34r[33;1H$GPGSV,3,1,12,10,65,314,49,24,55,063,34,32,39,272,29,18,22,187,38*7E
[1;33r[33;1H
[1;34r[33;1H$GPGSV,3,2,12,15,19,077,27,12,16,120,39,21,05,328,24,23,00,000,47*74
[1;33r[33;1H
[1;34r[33;1H$GPGSV,3,3,12,33,16,114,,20,83,168,,31,55,188,,22,32,306,*78
[1;33r[33;1H
[1;34r[33;1H$GPRMC,194902.000,A,4220.2437,N,07105.2413,W,0.00,332.82,140922,,,A*7E
[1;33r[33;1H
[1;34r[33;1H$GPGGA,194903.000,4220.2437,N,07105.2412,W,1,07,1.0,-47.8,M,-33.8,M,,0000*7D
[1;33r[33;1H
[1;34r[33;1H$GPGSA,M,3,10,24,32,18,15,12,21,,,,,,1.7,1.0,1.4*37
[1;33r[33;1H
[1;34r[33;1H$GPRMC,194903.000,A,4220.2437,N,07105.2412,W,0.00,332.82,140922,,,A*7E
[1;33r[33;1H
[1;34r[33;1H$GPGGA,194904.000,4220.2437,N,07105.2412,W,1,07,1.0,-47.7,M,-33.8,M,,0000*75
[1;33r[33;1H
[1;34r[33;1H$GPGSA,M,3,10,24,32,18,15,12,21,,,,,,1.7,1.0,1.4*37
[1;33r[33;1H
[1;34r[33;1H$GPRMC,194904.000,A,4220.2437,N,07105.2412,W,0.00,332.82,140922,,,A*79
[1;33r[33;1H
[1;34r[33;1H$GPGGA,194905.000,4220.2436,N,07105.2412,W,1,07,1.0,-47.6,M,-33.8,M,,0000*74
[1;33r[33;1H
[1;34r[33;1H$GPGSA,M,3,10,24,32,18,15,12,21,,,,,,1.7,1.0,1.4*37
[1;33r[33;1H
[1;34r[33;1H$GPRMC,194905.000,A,4220.2436,N,07105.2412,W,0.00,332.82,140922,,,A*79
[1;33r[33;1H
[1;34r[33;1H$GPGGA,194906.000,4220.2436,N,07105.2412,W,1,07,1.0,-47.5,M,-33.8,M,,0000*74
[1;33r[33;1H
[1;34r[33;1H$GPGSA,M,3,10,24,32,18,15,12,21,,,,,,1.7,1.0,1.4*37
[1;33r[33;1H
[1;34r[33;1H$GPRMC,194906.000,A,4220.2436,N,07105.2412,W,0.00,332.82,140922,,,A*7A
[1;33r[33;1H
[1;34r[33;1H$GPGGA,194907.000,4220.2436,N,07105.2411,W,1,07,1.0,-47.4,M,-33.8,M,,0000*77
[1;33r[33;1H
[1;34r[33;1H$GPGSA,M,3,10,24,32,18,15,12,21,,,,,,1.7,1.0,1.4*37
[1;33r[33;1H
[1;34r[33;1H$GPGSV,3,1,12,10,65,314,48,24,55,063,35,32,39,272,29,18,22,187,38*7E
[1;33r[33;1H
[1;34r[33;1H$GPGSV,3,2,12,15,19,077,33,12,16,120,39,21,05,328,24,23,00,000,47*71
[1;33r[33;1H
[1;34r[33;1H$GPGSV,3,3,12,33,16,114,,20,83,168,,31,55,188,,22,32,306,*78
[1;33r[33;1H
[1;34r[33;1H$GPRMC,194907.000,A,4220.2436,N,07105.2411,W,0.00,332.82,140922,,,A*78
[1;33r[33;1H
[1;34r[33;1H$GPGGA,194908.000,4220.2436,N,07105.2411,W,1,07,1.0,-47.3,M,-33.8,M,,0000*7F
[1;33r[33;1H
[1;34r[33;1H$GPGSA,M,3,10,24,32,18,15,12,21,,,,,,1.7,1.0,1.4*37
[1;33r[33;1H
[1;34r[33;1H$GPRMC,194908.000,A,4220.2436,N,07105.2411,W,0.00,332.82,140922,,,A*77
[1;33r[33;1H
[1;34r[33;1H$GPGGA,194909.000,4220.2436,N,07105.2411,W,1,07,1.0,-47.2,M,-33.8,M,,0000*7F
[1;33r[33;1H
[1;34r[33;1H$GPGSA,M,3,10,24,32,18,15,12,21,,,,,,1.7,1.0,1.4*37
[1;33r[33;1H
[1;34r[33;1H$GPRMC,194909.000,A,4220.2436,N,07105.2411,W,0.00,332.82,140922,,,A*76
[1;33r[33;1H
[1;34r[33;1H$GPGGA,194910.000,4220.2435,N,07105.2410,W,1,07,1.0,-47.1,M,-33.8,M,,0000*76
[1;33r[33;1H
[1;34r[33;1H$GPGSA,M,3,10,24,32,18,15,12,21,,,,,,1.7,1.0,1.4*37
[1;33r[33;1H
[1;34r[33;1H$GPRMC,194910.000,A,4220.2435,N,07105.2410,W,0.00,332.82,140922,,,A*7C
[1;33r[33;1H
[1;34r[33;1H$GPGGA,194911.000,4220.2435,N,07105.2410,W,1,07,1.0,-46.9,M,-33.8,M,,0000*7E
[1;33r[33;1H
[1;34r[33;1H$GPGSA,M,3,10,24,32,18,15,12,21,,,,,,1.7,1.0,1.4*37
[1;33r[33;1H
[1;34r[33;1H$GPRMC,194911.000,A,4220.2435,N,07105.2410,W,0.00,332.82,140922,,,A*7D
[1;33r[33;1H
[1;34r[33;1H$GPGGA,194912.000,4220.2435,N,07105.2410,W,1,07,1.0,-46.8,M,-33.8,[8;30H[?25l+-------------------------+[9;30H|                         |[10;30H|  Killed by signal 1 !   |[11;30H|                         |[12;30H+-------------------------+[11;31H[?25l[?12l[?25h[8;1H$GPRMC,194904.000,A,4220.2437,N,07105.2412,W,0.00,332.82[9;1H$GPGGA,194905.000,4220.2436,N,07105.2412,W,1,07,1.0,-47.[10;1H$GPGSA,M,3,10,24,32,18,15,12,21,,,,,,1.7,1.0,1.4*37     [11;1H$GPRMC,194905.000,A,4220.2436,N,07105.2412,W,0.00,332.82[12;1H$GPGGA,194906.000,4220.2436,N,07105.2412,W,1,07,1.0,-47.[33;67H[8;35H[?25l+---------------+[9;35H|               |[10;35H|  Hanging up   |[11;35H|               |[12;35H+---------------+[10;48H[?25l[?12l[?25h[8;1H$GPRMC,194904.000,A,4220.2437,N,07105.2412,W,0.00,3[9;1H$GPGGA,194905.000,4220.2436,N,07105.2412,W,1,07,1.0[10;1H$GPGSA,M,3,10,24,32,18,15,12,21,,,,,,1.7,1.0,1.4*37[11;1H$GPRMC,194905.000,A,4220.2436,N,07105.2412,W,0.00,3[12;1H$GPGGA,194906.000,4220.2436,N,07105.2412,W,1,07,1.0[33;67H[34;1H[?25l[0m(B[7mCTRL-A Z for help | 4800 8N1 | NOR | Minicom 2.7.1 | VT102 | Offline | ttyUSB0     [?12l[?25h[33;67H[0m(B[H[2J[?12l[?25h[?1l>[!p[?3;4l[4l>
